[
 {
  "name": "168 Sushi Sashimi",
  "name_en": null,
  "lat": 7.8744965,
  "lng": 98.3785192,
  "category": "Local Food",
  "source": "tat_restaurants",
  "source_type": "directory_listed",
  "phone": null,
  "website": null,
  "dietary_hint": [],
  "completeness": 6
 },
 {
  "name": "360 Bar&Grill",
  "name_en": null,
  "lat": 8.0232978,
  "lng": 98.301606,
  "category": "Local Food",
  "source": "tat_restaurants",
  "source_type": "directory_listed",
  "phone": "076 317 600",
  "website": null,
  "dietary_hint": [],
  "completeness": 6
 },
 {
  "name": "A Dressert Moments",
  "name_en": null,
  "lat": 7.8847508,
  "lng": 98.3880084,
  "category": "Café & Dessert",
  "source": "tat_restaurants",
  "source_type": "directory_listed",
  "phone": null,
  "website": null,
  "dietary_hint": [],
  "completeness": 6
 },
 {
  "name": "A Little Sweet, Dessert Cafe",
  "name_en": null,
  "lat": 7.904422,
  "lng": 98.369395,
  "category": "Local Food",
  "source": "tat_restaurants",
  "source_type": "directory_listed",
  "phone": null,
  "website": null,
  "dietary_hint": [],
  "completeness": 6
 },
 {
  "name": "About BE",
  "name_en": null,
  "lat": 7.8825198,
  "lng": 98.3912498,
  "category": "Café & Dessert",
  "source": "tat_restaurants",
  "source_type": "directory_listed",
  "phone": null,
  "website": null,
  "dietary_hint": [],
  "completeness": 6
 },
 {
  "name": "Acqua (อควา)",
  "name_en": null,
  "lat": 7.9167757,
  "lng": 98.2908543,
  "category": "Local Food",
  "source": "tat_restaurants",
  "source_type": "directory_listed",
  "phone": "076 618 127",
  "website": null,
  "dietary_hint": [],
  "completeness": 6
 },
 {
  "name": "Am' Coffee (แอมคอฟฟี่)",
  "name_en": null,
  "lat": 8.109234,
  "lng": 98.30901,
  "category": "Café & Dessert",
  "source": "tat_restaurants",
  "source_type": "directory_listed",
  "phone": null,
  "website": null,
  "dietary_hint": [],
  "completeness": 6
 },
 {
  "name": "Ang Ku Tea House (อังกู๊)",
  "name_en": null,
  "lat": 8.0932787,
  "lng": 98.3030752,
  "category": "Café & Dessert",
  "source": "tat_restaurants",
  "source_type": "directory_listed",
  "phone": "076 380 499",
  "website": null,
  "dietary_hint": [],
  "completeness": 6
 },
 {
  "name": "BAAN CHEESE",
  "name_en": null,
  "lat": 7.8885435,
  "lng": 98.385276,
  "category": "Local Food",
  "source": "tat_restaurants",
  "source_type": "directory_listed",
  "phone": null,
  "website": null,
  "dietary_hint": [],
  "completeness": 6
 },
 {
  "name": "BEER FARM",
  "name_en": null,
  "lat": 7.881194,
  "lng": 98.3682571,
  "category": "Local Food",
  "source": "tat_restaurants",
  "source_type": "directory_listed",
  "phone": null,
  "website": null,
  "dietary_hint": [],
  "completeness": 6
 },
 {
  "name": "Baba Pool Club @ศรีพันวา",
  "name_en": null,
  "lat": 7.802486,
  "lng": 98.410731,
  "category": "Local Food",
  "source": "tat_restaurants",
  "source_type": "directory_listed",
  "phone": "076-371-008 ",
  "website": null,
  "dietary_hint": [],
  "completeness": 6
 },
 {
  "name": "Baboon Latido Bistro Cafe",
  "name_en": null,
  "lat": 7.8831479,
  "lng": 98.3894546,
  "category": "Local Food",
  "source": "tat_restaurants",
  "source_type": "directory_listed",
  "phone": null,
  "website": null,
  "dietary_hint": [],
  "completeness": 6
 },
 {
  "name": "Backyard (แบ็คยาร์ด)",
  "name_en": null,
  "lat": 7.9002716,
  "lng": 98.3679364,
  "category": "Local Food",
  "source": "tat_restaurants",
  "source_type": "directory_listed",
  "phone": null,
  "website": null,
  "dietary_hint": [],
  "completeness": 6
 },
 {
  "name": "Baikingu Japanese Buffet Garden Restaurant",
  "name_en": null,
  "lat": 7.872883,
  "lng": 98.366744,
  "category": "Local Food",
  "source": "tat_restaurants",
  "source_type": "directory_listed",
  "phone": null,
  "website": null,
  "dietary_hint": [],
  "completeness": 6
 },
 {
  "name": "Bamboo Bar & Grill Public House",
  "name_en": null,
  "lat": 7.892147,
  "lng": 98.367327,
  "category": "Local Food",
  "source": "tat_restaurants",
  "source_type": "directory_listed",
  "phone": null,
  "website": null,
  "dietary_hint": [],
  "completeness": 6
 },
 {
  "name": "Bar We Grill Cafe & Restaurant",
  "name_en": null,
  "lat": 7.915466,
  "lng": 98.34763,
  "category": "Local Food",
  "source": "tat_restaurants",
  "source_type": "directory_listed",
  "phone": null,
  "website": null,
  "dietary_hint": [],
  "completeness": 6
 },
 {
  "name": "Bella's House 1978",
  "name_en": null,
  "lat": 7.947691,
  "lng": 98.395416,
  "category": "Café & Dessert",
  "source": "tat_restaurants",
  "source_type": "directory_listed",
  "phone": null,
  "website": null,
  "dietary_hint": [],
  "completeness": 6
 },
 {
  "name": "Biscuit (บิสกิต)",
  "name_en": null,
  "lat": 7.8319293,
  "lng": 98.4010201,
  "category": "Café & Dessert",
  "source": "tat_restaurants",
  "source_type": "directory_listed",
  "phone": "076 302 900",
  "website": null,
  "dietary_hint": [],
  "completeness": 6
 },
 {
  "name": "Bodega & Grill",
  "name_en": null,
  "lat": 8.004972,
  "lng": 98.295252,
  "category": "Local Food",
  "source": "tat_restaurants",
  "source_type": "directory_listed",
  "phone": "076 324 101",
  "website": null,
  "dietary_hint": [],
  "completeness": 6
 },
 {
  "name": "Brasserie Phuket",
  "name_en": null,
  "lat": 7.882874,
  "lng": 98.387746,
  "category": "Local Food",
  "source": "tat_restaurants",
  "source_type": "directory_listed",
  "phone": "076 210 511",
  "website": null,
  "dietary_hint": [],
  "completeness": 6
 },
 {
  "name": "Brite dessert cafe",
  "name_en": null,
  "lat": 7.8710897,
  "lng": 98.3845103,
  "category": "Café & Dessert",
  "source": "tat_restaurants",
  "source_type": "directory_listed",
  "phone": null,
  "website": null,
  "dietary_hint": [],
  "completeness": 6
 },
 {
  "name": "Brown café",
  "name_en": null,
  "lat": 7.8895193,
  "lng": 98.3866072,
  "category": "Café & Dessert",
  "source": "tat_restaurants",
  "source_type": "directory_listed",
  "phone": null,
  "website": null,
  "dietary_hint": [],
  "completeness": 6
 },
 {
  "name": "Bubbles Restaurant",
  "name_en": null,
  "lat": 7.888397,
  "lng": 98.296737,
  "category": "Local Food",
  "source": "tat_restaurants",
  "source_type": "directory_listed",
  "phone": "076 231 999",
  "website": null,
  "dietary_hint": [],
  "completeness": 6
 },
 {
  "name": "Butcher Elite Beef",
  "name_en": null,
  "lat": 7.8990271,
  "lng": 98.3512719,
  "category": "Local Food",
  "source": "tat_restaurants",
  "source_type": "directory_listed",
  "phone": null,
  "website": null,
  "dietary_hint": [],
  "completeness": 6
 },
 {
  "name": "CHA CO Tea Bar",
  "name_en": null,
  "lat": 7.88152,
  "lng": 98.382403,
  "category": "Café & Dessert",
  "source": "tat_restaurants",
  "source_type": "directory_listed",
  "phone": null,
  "website": null,
  "dietary_hint": [],
  "completeness": 6
 },
 {
  "name": "CLUB NO.43",
  "name_en": null,
  "lat": 7.884665,
  "lng": 98.387326,
  "category": "Local Food",
  "source": "tat_restaurants",
  "source_type": "directory_listed",
  "phone": null,
  "website": null,
  "dietary_hint": [],
  "completeness": 6
 },
 {
  "name": "CRAFTs & Co.",
  "name_en": null,
  "lat": 7.885528,
  "lng": 98.387461,
  "category": "Local Food",
  "source": "tat_restaurants",
  "source_type": "directory_listed",
  "phone": null,
  "website": null,
  "dietary_hint": [],
  "completeness": 6
 },
 {
  "name": "Cafe Del Sol (คาเฟ่ เดลซอล)",
  "name_en": null,
  "lat": 7.886282,
  "lng": 98.387486,
  "category": "Café & Dessert",
  "source": "tat_restaurants",
  "source_type": "directory_listed",
  "phone": null,
  "website": null,
  "dietary_hint": [],
  "completeness": 6
 },
 {
  "name": "Cafe' At Home",
  "name_en": null,
  "lat": 8.000208,
  "lng": 98.391663,
  "category": "Café & Dessert",
  "source": "tat_restaurants",
  "source_type": "directory_listed",
  "phone": null,
  "website": null,
  "dietary_hint": [],
  "completeness": 6
 },
 {
  "name": "Cafe' Havana",
  "name_en": null,
  "lat": 7.788016,
  "lng": 98.317091,
  "category": "Local Food",
  "source": "tat_restaurants",
  "source_type": "directory_listed",
  "phone": null,
  "website": null,
  "dietary_hint": [],
  "completeness": 6
 },
 {
  "name": "Cafe'in - Thaihua Museum",
  "name_en": null,
  "lat": 7.8849906,
  "lng": 98.3868677,
  "category": "Café & Dessert",
  "source": "tat_restaurants",
  "source_type": "directory_listed",
  "phone": null,
  "website": null,
  "dietary_hint": [],
  "completeness": 6
 },
 {
  "name": "Café Dcup (คาเฟ่ ดีคัพ)",
  "name_en": null,
  "lat": 8.012213,
  "lng": 98.316504,
  "category": "Café & Dessert",
  "source": "tat_restaurants",
  "source_type": "directory_listed",
  "phone": null,
  "website": null,
  "dietary_hint": [],
  "completeness": 6
 },
 {
  "name": "Café Y Té",
  "name_en": null,
  "lat": 7.88396,
  "lng": 98.3907354,
  "category": "Café & Dessert",
  "source": "tat_restaurants",
  "source_type": "directory_listed",
  "phone": "076 219 019",
  "website": null,
  "dietary_hint": [],
  "completeness": 6
 },
 {
  "name": "Cake Box The Terminal Maya Hotel",
  "name_en": null,
  "lat": 8.1014046,
  "lng": 98.304766,
  "category": "Café & Dessert",
  "source": "tat_restaurants",
  "source_type": "directory_listed",
  "phone": "076-328-518 ",
  "website": null,
  "dietary_hint": [],
  "completeness": 6
 },
 {
  "name": "Capannina (คาพานีน่า)",
  "name_en": null,
  "lat": 7.823116,
  "lng": 98.299912,
  "category": "Local Food",
  "source": "tat_restaurants",
  "source_type": "directory_listed",
  "phone": "076 284 318",
  "website": null,
  "dietary_hint": [],
  "completeness": 6
 },
 {
  "name": "Carambola Cafe",
  "name_en": null,
  "lat": 7.8862755,
  "lng": 98.3759232,
  "category": "Local Food",
  "source": "tat_restaurants",
  "source_type": "directory_listed",
  "phone": null,
  "website": null,
  "dietary_hint": [],
  "completeness": 6
 },
 {
  "name": "Chain Of Love",
  "name_en": null,
  "lat": 7.9127333,
  "lng": 98.367988,
  "category": "Café & Dessert",
  "source": "tat_restaurants",
  "source_type": "directory_listed",
  "phone": null,
  "website": null,
  "dietary_hint": [],
  "completeness": 6
 },
 {
  "name": "Chateau Cafe & Restaurant",
  "name_en": null,
  "lat": 7.9245546,
  "lng": 98.3778721,
  "category": "Café & Dessert",
  "source": "tat_restaurants",
  "source_type": "directory_listed",
  "phone": null,
  "website": null,
  "dietary_hint": [],
  "completeness": 6
 },
 {
  "name": "Chino Cafe Gallery",
  "name_en": null,
  "lat": 7.8848047,
  "lng": 98.387606,
  "category": "Café & Dessert",
  "source": "tat_restaurants",
  "source_type": "directory_listed",
  "phone": null,
  "website": null,
  "dietary_hint": [],
  "completeness": 6
 },
 {
  "name": "Chou Chou Deli And Bistro",
  "name_en": null,
  "lat": 7.888418,
  "lng": 98.296738,
  "category": "Café & Dessert",
  "source": "tat_restaurants",
  "source_type": "directory_listed",
  "phone": "076 231 999",
  "website": null,
  "dietary_hint": [],
  "completeness": 6
 },
 {
  "name": "Churrasco Phuket",
  "name_en": null,
  "lat": 7.8924891,
  "lng": 98.2988866,
  "category": "Local Food",
  "source": "tat_restaurants",
  "source_type": "directory_listed",
  "phone": "076 366 723",
  "website": null,
  "dietary_hint": [],
  "completeness": 6
 },
 {
  "name": "Clear 85 Shabu&Coffee",
  "name_en": null,
  "lat": 7.9067815,
  "lng": 98.4043551,
  "category": "Local Food",
  "source": "tat_restaurants",
  "source_type": "directory_listed",
  "phone": null,
  "website": null,
  "dietary_hint": [],
  "completeness": 6
 },
 {
  "name": "Coff Cake",
  "name_en": null,
  "lat": 7.895175,
  "lng": 98.354534,
  "category": "Café & Dessert",
  "source": "tat_restaurants",
  "source_type": "directory_listed",
  "phone": null,
  "website": null,
  "dietary_hint": [],
  "completeness": 6
 },
 {
  "name": "Coffee Brick",
  "name_en": null,
  "lat": 7.840646,
  "lng": 98.33392,
  "category": "Café & Dessert",
  "source": "tat_restaurants",
  "source_type": "directory_listed",
  "phone": null,
  "website": null,
  "dietary_hint": [],
  "completeness": 6
 },
 {
  "name": "Comics Cafe & bar",
  "name_en": null,
  "lat": 7.8830914,
  "lng": 98.3967295,
  "category": "Local Food",
  "source": "tat_restaurants",
  "source_type": "directory_listed",
  "phone": null,
  "website": null,
  "dietary_hint": [],
  "completeness": 6
 },
 {
  "name": "Coral Cafe",
  "name_en": null,
  "lat": 8.1122874,
  "lng": 98.3065061,
  "category": "Café & Dessert",
  "source": "tat_restaurants",
  "source_type": "directory_listed",
  "phone": "076-351-703 ",
  "website": null,
  "dietary_hint": [],
  "completeness": 6
 },
 {
  "name": "Crepe is Crepe Phuket",
  "name_en": null,
  "lat": 7.8851346,
  "lng": 98.3874513,
  "category": "Café & Dessert",
  "source": "tat_restaurants",
  "source_type": "directory_listed",
  "phone": "076 689 599",
  "website": null,
  "dietary_hint": [],
  "completeness": 6
 },
 {
  "name": "Crust (ครัสท์)",
  "name_en": null,
  "lat": 7.900288,
  "lng": 98.367785,
  "category": "Café & Dessert",
  "source": "tat_restaurants",
  "source_type": "directory_listed",
  "phone": null,
  "website": null,
  "dietary_hint": [],
  "completeness": 6
 },
 {
  "name": "D Veggie Salad bar (ดีเวจจี้สลัดบาร์)",
  "name_en": null,
  "lat": 7.88999,
  "lng": 98.38611,
  "category": "Local Food",
  "source": "tat_restaurants",
  "source_type": "directory_listed",
  "phone": null,
  "website": null,
  "dietary_hint": [],
  "completeness": 6
 },
 {
  "name": "D wine | Italian Bistro & Wine Bar",
  "name_en": null,
  "lat": 7.890674,
  "lng": 98.30005,
  "category": "Local Food",
  "source": "tat_restaurants",
  "source_type": "directory_listed",
  "phone": "076 604 288",
  "website": null,
  "dietary_hint": [],
  "completeness": 6
 },
 {
  "name": "DIBUKA Cafe & Restaurant",
  "name_en": null,
  "lat": 7.8862844,
  "lng": 98.3915591,
  "category": "Local Food",
  "source": "tat_restaurants",
  "source_type": "directory_listed",
  "phone": "076 606 666",
  "website": null,
  "dietary_hint": [],
  "completeness": 6
 },
 {
  "name": "DOO CAT CAFE Phuket",
  "name_en": null,
  "lat": 7.7842985,
  "lng": 98.3172864,
  "category": "Café & Dessert",
  "source": "tat_restaurants",
  "source_type": "directory_listed",
  "phone": null,
  "website": null,
  "dietary_hint": [],
  "completeness": 6
 },
 {
  "name": "Da Sandro Restaurant (ตราโตเรียดาซันโต้)",
  "name_en": null,
  "lat": 7.838351,
  "lng": 98.348937,
  "category": "Local Food",
  "source": "tat_restaurants",
  "source_type": "directory_listed",
  "phone": null,
  "website": null,
  "dietary_hint": [],
  "completeness": 6
 },
 {
  "name": "Dcafe (ดีคาเฟ่)",
  "name_en": null,
  "lat": 7.9093315,
  "lng": 98.3478107,
  "category": "Local Food",
  "source": "tat_restaurants",
  "source_type": "directory_listed",
  "phone": null,
  "website": null,
  "dietary_hint": [],
  "completeness": 6
 },
 {
  "name": "Dok Bua Vegetarian Restaurant",
  "name_en": null,
  "lat": 7.901349,
  "lng": 98.377518,
  "category": "Local Food",
  "source": "tat_restaurants",
  "source_type": "directory_listed",
  "phone": "076 211 985",
  "website": null,
  "dietary_hint": [
   "vegetarian"
  ],
  "completeness": 6
 },
 {
  "name": "Dou Brew Coffee & Craft",
  "name_en": null,
  "lat": 7.885402,
  "lng": 98.389107,
  "category": "Café & Dessert",
  "source": "tat_restaurants",
  "source_type": "directory_listed",
  "phone": null,
  "website": null,
  "dietary_hint": [],
  "completeness": 6
 },
 {
  "name": "Duang Restaurant (ดวง)",
  "name_en": null,
  "lat": 7.920486,
  "lng": 98.333962,
  "category": "Local Food",
  "source": "tat_restaurants",
  "source_type": "directory_listed",
  "phone": null,
  "website": null,
  "dietary_hint": [],
  "completeness": 6
 },
 {
  "name": "Duca'tim Phuket",
  "name_en": null,
  "lat": 7.896259,
  "lng": 98.365697,
  "category": "Local Food",
  "source": "tat_restaurants",
  "source_type": "directory_listed",
  "phone": null,
  "website": null,
  "dietary_hint": [],
  "completeness": 6
 },
 {
  "name": "ELLA Bar & Bistro",
  "name_en": null,
  "lat": 7.8913569,
  "lng": 98.2948953,
  "category": "Café & Dessert",
  "source": "tat_restaurants",
  "source_type": "directory_listed",
  "phone": null,
  "website": null,
  "dietary_hint": [],
  "completeness": 6
 },
 {
  "name": "Extra Steak",
  "name_en": null,
  "lat": 7.877813,
  "lng": 98.3847337,
  "category": "Local Food",
  "source": "tat_restaurants",
  "source_type": "directory_listed",
  "phone": null,
  "website": null,
  "dietary_hint": [],
  "completeness": 6
 },
 {
  "name": "FISH BAR & Restaurant",
  "name_en": null,
  "lat": 7.775252,
  "lng": 98.32673,
  "category": "Local Food",
  "source": "tat_restaurants",
  "source_type": "directory_listed",
  "phone": null,
  "website": null,
  "dietary_hint": [],
  "completeness": 6
 },
 {
  "name": "Factory cafe (แฟคทอรี่ คาเฟ่)",
  "name_en": null,
  "lat": 7.888553,
  "lng": 98.384674,
  "category": "Café & Dessert",
  "source": "tat_restaurants",
  "source_type": "directory_listed",
  "phone": null,
  "website": null,
  "dietary_hint": [],
  "completeness": 6
 },
 {
  "name": "Fit Bar Low Calorie Food & Drink",
  "name_en": null,
  "lat": 7.9120567,
  "lng": 98.3682862,
  "category": "Local Food",
  "source": "tat_restaurants",
  "source_type": "directory_listed",
  "phone": null,
  "website": null,
  "dietary_hint": [],
  "completeness": 6
 },
 {
  "name": "Friends Cafe",
  "name_en": null,
  "lat": 7.898979,
  "lng": 98.343885,
  "category": "Local Food",
  "source": "tat_restaurants",
  "source_type": "directory_listed",
  "phone": null,
  "website": null,
  "dietary_hint": [],
  "completeness": 6
 },
 {
  "name": "Fusion One",
  "name_en": null,
  "lat": 8.111095,
  "lng": 98.306465,
  "category": "Café & Dessert",
  "source": "tat_restaurants",
  "source_type": "directory_listed",
  "phone": null,
  "website": null,
  "dietary_hint": [],
  "completeness": 6
 },
 {
  "name": "Glass House@Sino",
  "name_en": null,
  "lat": 7.8867194,
  "lng": 98.3935658,
  "category": "Local Food",
  "source": "tat_restaurants",
  "source_type": "directory_listed",
  "phone": "076 232 429",
  "website": null,
  "dietary_hint": [],
  "completeness": 6
 },
 {
  "name": "Happy Cake (แฮปปี้ เค้ก)",
  "name_en": null,
  "lat": 7.8710133,
  "lng": 98.3600023,
  "category": "Café & Dessert",
  "source": "tat_restaurants",
  "source_type": "directory_listed",
  "phone": null,
  "website": null,
  "dietary_hint": [],
  "completeness": 6
 },
 {
  "name": "Happy Steak ฮาลาล",
  "name_en": null,
  "lat": 7.9122247,
  "lng": 98.3926185,
  "category": "Local Food",
  "source": "tat_restaurants",
  "source_type": "directory_listed",
  "phone": "0862679400",
  "website": null,
  "dietary_hint": [
   "halal"
  ],
  "completeness": 6
 },
 {
  "name": "Happy Zone Karaoke",
  "name_en": null,
  "lat": 7.880248,
  "lng": 98.375805,
  "category": "Local Food",
  "source": "tat_restaurants",
  "source_type": "directory_listed",
  "phone": null,
  "website": null,
  "dietary_hint": [],
  "completeness": 6
 },
 {
  "name": "Hard Rock café (ฮาร์ดร็อค คาเฟ่)",
  "name_en": null,
  "lat": 7.8872678,
  "lng": 98.2942388,
  "category": "Local Food",
  "source": "tat_restaurants",
  "source_type": "directory_listed",
  "phone": "076 366 381",
  "website": null,
  "dietary_hint": [],
  "completeness": 6
 },
 {
  "name": "Hatch Phuket",
  "name_en": null,
  "lat": 7.886456,
  "lng": 98.391565,
  "category": "Café & Dessert",
  "source": "tat_restaurants",
  "source_type": "directory_listed",
  "phone": null,
  "website": null,
  "dietary_hint": [],
  "completeness": 6
 },
 {
  "name": "Holy Carb (โฮลี่ แคร็บ)",
  "name_en": null,
  "lat": 7.883439,
  "lng": 98.397952,
  "category": "Local Food",
  "source": "tat_restaurants",
  "source_type": "directory_listed",
  "phone": null,
  "website": null,
  "dietary_hint": [],
  "completeness": 6
 },
 {
  "name": "Holy Shrimp At Chillva Market",
  "name_en": null,
  "lat": 7.9074056,
  "lng": 98.3736005,
  "category": "Local Food",
  "source": "tat_restaurants",
  "source_type": "directory_listed",
  "phone": null,
  "website": null,
  "dietary_hint": [],
  "completeness": 6
 },
 {
  "name": "Homa Teppanyaki&Japanese Cuisine",
  "name_en": null,
  "lat": 7.894903,
  "lng": 98.365348,
  "category": "Local Food",
  "source": "tat_restaurants",
  "source_type": "directory_listed",
  "phone": "076-602498 ",
  "website": null,
  "dietary_hint": [],
  "completeness": 6
 },
 {
  "name": "Hooters (ฮูเตอร์ส)",
  "name_en": null,
  "lat": 7.8874599,
  "lng": 98.2944525,
  "category": "Local Food",
  "source": "tat_restaurants",
  "source_type": "directory_listed",
  "phone": null,
  "website": null,
  "dietary_hint": [],
  "completeness": 6
 },
 {
  "name": "Hungry Monkey Phuket",
  "name_en": null,
  "lat": 7.8852403,
  "lng": 98.3836077,
  "category": "Local Food",
  "source": "tat_restaurants",
  "source_type": "directory_listed",
  "phone": null,
  "website": null,
  "dietary_hint": [],
  "completeness": 6
 },
 {
  "name": "Ice Frost Dessert Cafe",
  "name_en": null,
  "lat": 7.883008,
  "lng": 98.389856,
  "category": "Local Food",
  "source": "tat_restaurants",
  "source_type": "directory_listed",
  "phone": null,
  "website": null,
  "dietary_hint": [],
  "completeness": 6
 },
 {
  "name": "Ice Style Salad",
  "name_en": null,
  "lat": 7.881339,
  "lng": 98.386509,
  "category": "Local Food",
  "source": "tat_restaurants",
  "source_type": "directory_listed",
  "phone": null,
  "website": null,
  "dietary_hint": [],
  "completeness": 6
 },
 {
  "name": "Ichi Sushi (อิจิซูชิ)",
  "name_en": null,
  "lat": 7.9059766,
  "lng": 98.3810637,
  "category": "Local Food",
  "source": "tat_restaurants",
  "source_type": "directory_listed",
  "phone": null,
  "website": null,
  "dietary_hint": [],
  "completeness": 6
 },
 {
  "name": "In Sea seafood Buffet",
  "name_en": null,
  "lat": 7.8443959,
  "lng": 98.3345648,
  "category": "Local Food",
  "source": "tat_restaurants",
  "source_type": "directory_listed",
  "phone": null,
  "website": null,
  "dietary_hint": [],
  "completeness": 6
 },
 {
  "name": "J-House Dim Sum (เจเฮ้าส์ ติ่มซำ)",
  "name_en": null,
  "lat": 7.904972,
  "lng": 98.37736,
  "category": "Local Food",
  "source": "tat_restaurants",
  "source_type": "directory_listed",
  "phone": "076 255 399",
  "website": null,
  "dietary_hint": [],
  "completeness": 6
 },
 {
  "name": "KINDEE (กินดี)",
  "name_en": null,
  "lat": 8.1756961,
  "lng": 98.302053,
  "category": "Local Food",
  "source": "tat_restaurants",
  "source_type": "directory_listed",
  "phone": null,
  "website": null,
  "dietary_hint": [],
  "completeness": 6
 },
 {
  "name": "KN Coffee Seafood & Rabiabg View",
  "name_en": null,
  "lat": 7.88775,
  "lng": 98.27148,
  "category": "Café & Dessert",
  "source": "tat_restaurants",
  "source_type": "directory_listed",
  "phone": null,
  "website": null,
  "dietary_hint": [
   "halal"
  ],
  "completeness": 6
 },
 {
  "name": "KanEang @pier",
  "name_en": null,
  "lat": 7.819995,
  "lng": 98.344269,
  "category": "Local Food",
  "source": "tat_restaurants",
  "source_type": "directory_listed",
  "phone": "076 381 212",
  "website": null,
  "dietary_hint": [],
  "completeness": 6
 },
 {
  "name": "Kc Kathu Connection Sport Club & Restaurant",
  "name_en": null,
  "lat": 7.9102336,
  "lng": 98.34282,
  "category": "Local Food",
  "source": "tat_restaurants",
  "source_type": "directory_listed",
  "phone": "076-603-802",
  "website": null,
  "dietary_hint": [],
  "completeness": 6
 },
 {
  "name": "KingKong Cafe'",
  "name_en": null,
  "lat": 7.902229,
  "lng": 98.377486,
  "category": "Café & Dessert",
  "source": "tat_restaurants",
  "source_type": "directory_listed",
  "phone": null,
  "website": null,
  "dietary_hint": [],
  "completeness": 6
 },
 {
  "name": "Koh Kimbob",
  "name_en": null,
  "lat": 7.88935,
  "lng": 98.386847,
  "category": "Local Food",
  "source": "tat_restaurants",
  "source_type": "directory_listed",
  "phone": null,
  "website": null,
  "dietary_hint": [],
  "completeness": 6
 },
 {
  "name": "Kokorotako (โคโคโระทาโกะ)",
  "name_en": null,
  "lat": 7.9162679,
  "lng": 98.3718041,
  "category": "Local Food",
  "source": "tat_restaurants",
  "source_type": "directory_listed",
  "phone": "076 376 299",
  "website": null,
  "dietary_hint": [],
  "completeness": 6
 },
 {
  "name": "Kudo Beach Club",
  "name_en": null,
  "lat": 7.894926,
  "lng": 98.2952,
  "category": "Local Food",
  "source": "tat_restaurants",
  "source_type": "directory_listed",
  "phone": "076 609 401",
  "website": null,
  "dietary_hint": [],
  "completeness": 6
 },
 {
  "name": "Kuma Premium Sushi Buffet",
  "name_en": null,
  "lat": 7.888059,
  "lng": 98.387103,
  "category": "Local Food",
  "source": "tat_restaurants",
  "source_type": "directory_listed",
  "phone": "076 641 153",
  "website": null,
  "dietary_hint": [],
  "completeness": 6
 },
 {
  "name": "La Boucherie Chalong",
  "name_en": null,
  "lat": 7.831496,
  "lng": 98.344712,
  "category": "Local Food",
  "source": "tat_restaurants",
  "source_type": "directory_listed",
  "phone": null,
  "website": null,
  "dietary_hint": [],
  "completeness": 6
 },
 {
  "name": "La Gritta @Amari Phuket",
  "name_en": null,
  "lat": 7.88712,
  "lng": 98.28568,
  "category": "Local Food",
  "source": "tat_restaurants",
  "source_type": "directory_listed",
  "phone": "076 340 112",
  "website": null,
  "dietary_hint": [],
  "completeness": 6
 },
 {
  "name": "Lemongrass (เลมอนกลาส)",
  "name_en": null,
  "lat": 7.886125,
  "lng": 98.392237,
  "category": "Local Food",
  "source": "tat_restaurants",
  "source_type": "directory_listed",
  "phone": "076 682 999",
  "website": null,
  "dietary_hint": [],
  "completeness": 6
 },
 {
  "name": "Life A Bike Cafe",
  "name_en": null,
  "lat": 7.9090593,
  "lng": 98.3478946,
  "category": "Café & Dessert",
  "source": "tat_restaurants",
  "source_type": "directory_listed",
  "phone": null,
  "website": null,
  "dietary_hint": [],
  "completeness": 6
 },
 {
  "name": "Little Paris Phuket",
  "name_en": null,
  "lat": 7.993299,
  "lng": 98.30424,
  "category": "Café & Dessert",
  "source": "tat_restaurants",
  "source_type": "directory_listed",
  "phone": "076 324 030",
  "website": null,
  "dietary_hint": [],
  "completeness": 6
 },
 {
  "name": "Longbar Patong",
  "name_en": null,
  "lat": 7.887924,
  "lng": 98.292104,
  "category": "Local Food",
  "source": "tat_restaurants",
  "source_type": "directory_listed",
  "phone": null,
  "website": null,
  "dietary_hint": [],
  "completeness": 6
 },
 {
  "name": "MR.Ink Bubble Milk Tea",
  "name_en": null,
  "lat": 7.9083243,
  "lng": 98.3487874,
  "category": "Local Food",
  "source": "tat_restaurants",
  "source_type": "directory_listed",
  "phone": null,
  "website": null,
  "dietary_hint": [],
  "completeness": 6
 },
 {
  "name": "Mac-Chiato House Cake Box",
  "name_en": null,
  "lat": 7.884845,
  "lng": 98.388729,
  "category": "Café & Dessert",
  "source": "tat_restaurants",
  "source_type": "directory_listed",
  "phone": "076 215 701",
  "website": null,
  "dietary_hint": [],
  "completeness": 6
 },
 {
  "name": "Malika Terrace",
  "name_en": null,
  "lat": 7.9173009,
  "lng": 98.2845,
  "category": "Local Food",
  "source": "tat_restaurants",
  "source_type": "directory_listed",
  "phone": "076-358-999 ",
  "website": null,
  "dietary_hint": [],
  "completeness": 6
 },
 {
  "name": "Marco Polo222",
  "name_en": null,
  "lat": 7.886125,
  "lng": 98.392477,
  "category": "Local Food",
  "source": "tat_restaurants",
  "source_type": "directory_listed",
  "phone": null,
  "website": null,
  "dietary_hint": [],
  "completeness": 6
 },
 {
  "name": "Margaret fresh coffee & bakery home made",
  "name_en": null,
  "lat": 7.76231,
  "lng": 98.315112,
  "category": "Café & Dessert",
  "source": "tat_restaurants",
  "source_type": "directory_listed",
  "phone": null,
  "website": null,
  "dietary_hint": [],
  "completeness": 6
 },
 {
  "name": "Mark cafe",
  "name_en": null,
  "lat": 7.8835257,
  "lng": 98.3929093,
  "category": "Local Food",
  "source": "tat_restaurants",
  "source_type": "directory_listed",
  "phone": null,
  "website": null,
  "dietary_hint": [],
  "completeness": 6
 },
 {
  "name": "Masaaki Sushi (มาซากิ ซูชิ)",
  "name_en": null,
  "lat": 8.094488,
  "lng": 98.305603,
  "category": "Local Food",
  "source": "tat_restaurants",
  "source_type": "directory_listed",
  "phone": null,
  "website": null,
  "dietary_hint": [],
  "completeness": 6
 },
 {
  "name": "May Your Coffee (เมย์ ยัว คอฟฟี่)",
  "name_en": null,
  "lat": 7.88464,
  "lng": 98.37967,
  "category": "Café & Dessert",
  "source": "tat_restaurants",
  "source_type": "directory_listed",
  "phone": "076 213 653",
  "website": null,
  "dietary_hint": [],
  "completeness": 6
 },
 {
  "name": "Me Seoul (มีโซล มาม่าหม้อไฟเกาหลี)",
  "name_en": null,
  "lat": 7.875993,
  "lng": 98.390379,
  "category": "Local Food",
  "source": "tat_restaurants",
  "source_type": "directory_listed",
  "phone": null,
  "website": null,
  "dietary_hint": [],
  "completeness": 6
 },
 {
  "name": "Mellow Yellow Toast & Bistro",
  "name_en": null,
  "lat": 7.8831836,
  "lng": 98.389639,
  "category": "Local Food",
  "source": "tat_restaurants",
  "source_type": "directory_listed",
  "phone": null,
  "website": null,
  "dietary_hint": [],
  "completeness": 6
 },
 {
  "name": "Mirror Mirror",
  "name_en": null,
  "lat": 7.885812,
  "lng": 98.3883613,
  "category": "Local Food",
  "source": "tat_restaurants",
  "source_type": "directory_listed",
  "phone": null,
  "website": null,
  "dietary_hint": [],
  "completeness": 6
 },
 {
  "name": "Mom's Cafe & Seafood Garden (มัมคาเฟ่)",
  "name_en": null,
  "lat": 8.0210058,
  "lng": 98.3272672,
  "category": "Local Food",
  "source": "tat_restaurants",
  "source_type": "directory_listed",
  "phone": null,
  "website": null,
  "dietary_hint": [],
  "completeness": 6
 },
 {
  "name": "Monkey Cafe",
  "name_en": null,
  "lat": 7.8776168,
  "lng": 98.3945639,
  "category": "Café & Dessert",
  "source": "tat_restaurants",
  "source_type": "directory_listed",
  "phone": "076 222 266",
  "website": null,
  "dietary_hint": [],
  "completeness": 6
 },
 {
  "name": "Mustard Cafe Baking Studio (มัสตาท คาเฟ่)",
  "name_en": null,
  "lat": 7.9002145,
  "lng": 98.365271,
  "category": "Café & Dessert",
  "source": "tat_restaurants",
  "source_type": "directory_listed",
  "phone": null,
  "website": null,
  "dietary_hint": [],
  "completeness": 6
 },
 {
  "name": "My Cafe",
  "name_en": null,
  "lat": 7.8831424,
  "lng": 98.3895944,
  "category": "Café & Dessert",
  "source": "tat_restaurants",
  "source_type": "directory_listed",
  "phone": null,
  "website": null,
  "dietary_hint": [],
  "completeness": 6
 },
 {
  "name": "Myth Coffee Bar & Hangout Space",
  "name_en": null,
  "lat": 7.849918,
  "lng": 98.334384,
  "category": "Café & Dessert",
  "source": "tat_restaurants",
  "source_type": "directory_listed",
  "phone": null,
  "website": null,
  "dietary_hint": [],
  "completeness": 6
 },
 {
  "name": "N1 Cafe & Green (เอ็นวัน คาเฟ่)",
  "name_en": null,
  "lat": 7.8838494,
  "lng": 98.3638675,
  "category": "Local Food",
  "source": "tat_restaurants",
  "source_type": "directory_listed",
  "phone": null,
  "website": null,
  "dietary_hint": [],
  "completeness": 6
 },
 {
  "name": "NITO Nitro Drink",
  "name_en": null,
  "lat": 7.884827,
  "lng": 98.38795,
  "category": "Local Food",
  "source": "tat_restaurants",
  "source_type": "directory_listed",
  "phone": null,
  "website": null,
  "dietary_hint": [],
  "completeness": 6
 },
 {
  "name": "Naughty Nuri’s Phuket",
  "name_en": null,
  "lat": 7.8982803,
  "lng": 98.2998124,
  "category": "Local Food",
  "source": "tat_restaurants",
  "source_type": "directory_listed",
  "phone": "076 340 308",
  "website": null,
  "dietary_hint": [],
  "completeness": 6
 },
 {
  "name": "No.21 food&dessert",
  "name_en": null,
  "lat": 7.8905094,
  "lng": 98.3899049,
  "category": "Local Food",
  "source": "tat_restaurants",
  "source_type": "directory_listed",
  "phone": null,
  "website": null,
  "dietary_hint": [],
  "completeness": 6
 },
 {
  "name": "Norkchan Cafe'",
  "name_en": null,
  "lat": 7.8842463,
  "lng": 98.3649445,
  "category": "Café & Dessert",
  "source": "tat_restaurants",
  "source_type": "directory_listed",
  "phone": null,
  "website": null,
  "dietary_hint": [],
  "completeness": 6
 },
 {
  "name": "O-oh Farm Ta-eiad (โอ๊ะโฮฟาร์มตาเอียด)",
  "name_en": null,
  "lat": 7.8580316,
  "lng": 98.3418534,
  "category": "Local Food",
  "source": "tat_restaurants",
  "source_type": "directory_listed",
  "phone": null,
  "website": null,
  "dietary_hint": [],
  "completeness": 6
 },
 {
  "name": "OHO Restaurant",
  "name_en": null,
  "lat": 7.875805,
  "lng": 98.379331,
  "category": "Local Food",
  "source": "tat_restaurants",
  "source_type": "directory_listed",
  "phone": null,
  "website": null,
  "dietary_hint": [
   "halal"
  ],
  "completeness": 6
 },
 {
  "name": "ONLY Cheese Phuket at Kathu",
  "name_en": null,
  "lat": 7.9093784,
  "lng": 98.3454105,
  "category": "Local Food",
  "source": "tat_restaurants",
  "source_type": "directory_listed",
  "phone": null,
  "website": null,
  "dietary_hint": [],
  "completeness": 6
 },
 {
  "name": "OSOT (โอสถ)",
  "name_en": null,
  "lat": 7.8832919,
  "lng": 98.3907676,
  "category": "Local Food",
  "source": "tat_restaurants",
  "source_type": "directory_listed",
  "phone": null,
  "website": null,
  "dietary_hint": [],
  "completeness": 6
 },
 {
  "name": "Ombre Bar & Restaurant",
  "name_en": null,
  "lat": 7.842063,
  "lng": 98.3025289,
  "category": "Local Food",
  "source": "tat_restaurants",
  "source_type": "directory_listed",
  "phone": "076 396 905",
  "website": null,
  "dietary_hint": [],
  "completeness": 6
 },
 {
  "name": "On The Way - street cafe' phuket",
  "name_en": null,
  "lat": 7.874383,
  "lng": 98.390256,
  "category": "Café & Dessert",
  "source": "tat_restaurants",
  "source_type": "directory_listed",
  "phone": null,
  "website": null,
  "dietary_hint": [],
  "completeness": 6
 },
 {
  "name": "Origami Cafe",
  "name_en": null,
  "lat": 7.804649,
  "lng": 98.331735,
  "category": "Café & Dessert",
  "source": "tat_restaurants",
  "source_type": "directory_listed",
  "phone": null,
  "website": null,
  "dietary_hint": [],
  "completeness": 6
 },
 {
  "name": "PIER 88 (เพียร์ 88)",
  "name_en": null,
  "lat": 8.067127,
  "lng": 98.436788,
  "category": "Café & Dessert",
  "source": "tat_restaurants",
  "source_type": "directory_listed",
  "phone": null,
  "website": null,
  "dietary_hint": [],
  "completeness": 6
 },
 {
  "name": "PINTO KARON",
  "name_en": null,
  "lat": 7.847347,
  "lng": 98.298859,
  "category": "Local Food",
  "source": "tat_restaurants",
  "source_type": "directory_listed",
  "phone": "076 396 023",
  "website": null,
  "dietary_hint": [],
  "completeness": 6
 },
 {
  "name": "Papa House Coffee",
  "name_en": null,
  "lat": 7.9145851,
  "lng": 98.3468547,
  "category": "Local Food",
  "source": "tat_restaurants",
  "source_type": "directory_listed",
  "phone": null,
  "website": null,
  "dietary_hint": [],
  "completeness": 6
 },
 {
  "name": "Peakaboo Cafe (พีคอะบู คาเฟ่)",
  "name_en": null,
  "lat": 7.888091,
  "lng": 98.387018,
  "category": "Café & Dessert",
  "source": "tat_restaurants",
  "source_type": "directory_listed",
  "phone": null,
  "website": null,
  "dietary_hint": [],
  "completeness": 6
 },
 {
  "name": "Pearl Noodle Cafe (เพิร์ล นู้ดเดิ้ล คาเฟ่)",
  "name_en": null,
  "lat": 7.881869,
  "lng": 98.392564,
  "category": "Local Food",
  "source": "tat_restaurants",
  "source_type": "directory_listed",
  "phone": "076 211 044",
  "website": null,
  "dietary_hint": [],
  "completeness": 6
 },
 {
  "name": "Phuket Fish Market Restaurant",
  "name_en": null,
  "lat": 7.839624,
  "lng": 98.366808,
  "category": "Local Food",
  "source": "tat_restaurants",
  "source_type": "directory_listed",
  "phone": "076374788",
  "website": null,
  "dietary_hint": [],
  "completeness": 6
 },
 {
  "name": "Phuket Glass Plates Museum",
  "name_en": null,
  "lat": 7.88371,
  "lng": 98.390666,
  "category": "Local Food",
  "source": "tat_restaurants",
  "source_type": "directory_listed",
  "phone": null,
  "website": null,
  "dietary_hint": [],
  "completeness": 6
 },
 {
  "name": "Pim's Bistro & Bakery",
  "name_en": null,
  "lat": 7.857823,
  "lng": 98.358079,
  "category": "Local Food",
  "source": "tat_restaurants",
  "source_type": "directory_listed",
  "phone": null,
  "website": null,
  "dietary_hint": [],
  "completeness": 6
 },
 {
  "name": "Pizzeria AGLI AMICI da Michele",
  "name_en": null,
  "lat": 7.8241364,
  "lng": 98.3434252,
  "category": "Local Food",
  "source": "tat_restaurants",
  "source_type": "directory_listed",
  "phone": "076 282 172",
  "website": null,
  "dietary_hint": [],
  "completeness": 6
 },
 {
  "name": "Plum Restaurant",
  "name_en": null,
  "lat": 7.9496743,
  "lng": 98.2742656,
  "category": "Local Food",
  "source": "tat_restaurants",
  "source_type": "directory_listed",
  "phone": "076 337 300",
  "website": null,
  "dietary_hint": [],
  "completeness": 6
 },
 {
  "name": "PolkaDot Phuket",
  "name_en": null,
  "lat": 7.880175,
  "lng": 98.3851123,
  "category": "Café & Dessert",
  "source": "tat_restaurants",
  "source_type": "directory_listed",
  "phone": null,
  "website": null,
  "dietary_hint": [],
  "completeness": 6
 },
 {
  "name": "Quip Sky Bar",
  "name_en": null,
  "lat": 7.8826946,
  "lng": 98.3907446,
  "category": "Local Food",
  "source": "tat_restaurants",
  "source_type": "directory_listed",
  "phone": null,
  "website": null,
  "dietary_hint": [],
  "completeness": 6
 },
 {
  "name": "Rasta Cafe",
  "name_en": null,
  "lat": 7.8839528,
  "lng": 98.3909939,
  "category": "Local Food",
  "source": "tat_restaurants",
  "source_type": "directory_listed",
  "phone": null,
  "website": null,
  "dietary_hint": [],
  "completeness": 6
 },
 {
  "name": "Re Ka Ta",
  "name_en": null,
  "lat": 7.813966,
  "lng": 98.298897,
  "category": "Local Food",
  "source": "tat_restaurants",
  "source_type": "directory_listed",
  "phone": "076 330 421",
  "website": null,
  "dietary_hint": [],
  "completeness": 6
 },
 {
  "name": "Richy Phuket (ริชชี่)",
  "name_en": null,
  "lat": 7.884715,
  "lng": 98.380222,
  "category": "Café & Dessert",
  "source": "tat_restaurants",
  "source_type": "directory_listed",
  "phone": "076 234 332",
  "website": null,
  "dietary_hint": [],
  "completeness": 6
 },
 {
  "name": "Rin Rin Bubble Milk Tea",
  "name_en": null,
  "lat": 7.885692,
  "lng": 98.377133,
  "category": "Local Food",
  "source": "tat_restaurants",
  "source_type": "directory_listed",
  "phone": null,
  "website": null,
  "dietary_hint": [],
  "completeness": 6
 },
 {
  "name": "Rock & Baby",
  "name_en": null,
  "lat": 7.8900833,
  "lng": 98.3666545,
  "category": "Local Food",
  "source": "tat_restaurants",
  "source_type": "directory_listed",
  "phone": null,
  "website": null,
  "dietary_hint": [],
  "completeness": 6
 },
 {
  "name": "Roy Dee",
  "name_en": null,
  "lat": 7.8118897,
  "lng": 98.3000454,
  "category": "Local Food",
  "source": "tat_restaurants",
  "source_type": "directory_listed",
  "phone": "076-688888 ",
  "website": null,
  "dietary_hint": [],
  "completeness": 6
 },
 {
  "name": "Rush Coffee",
  "name_en": null,
  "lat": 7.9069948,
  "lng": 98.3735893,
  "category": "Café & Dessert",
  "source": "tat_restaurants",
  "source_type": "directory_listed",
  "phone": null,
  "website": null,
  "dietary_hint": [],
  "completeness": 6
 },
 {
  "name": "Rustic - Eatery & bar",
  "name_en": null,
  "lat": 7.8860954,
  "lng": 98.2897974,
  "category": "Local Food",
  "source": "tat_restaurants",
  "source_type": "directory_listed",
  "phone": null,
  "website": null,
  "dietary_hint": [],
  "completeness": 6
 },
 {
  "name": "Ryn-authentic Tea And Slow Drop Coffee",
  "name_en": null,
  "lat": 7.8848808,
  "lng": 98.3873025,
  "category": "Local Food",
  "source": "tat_restaurants",
  "source_type": "directory_listed",
  "phone": null,
  "website": null,
  "dietary_hint": [],
  "completeness": 6
 },
 {
  "name": "SEA BREEZE CAFE AND TERRACE RESTAURANT",
  "name_en": null,
  "lat": 7.888368,
  "lng": 98.292933,
  "category": "Café & Dessert",
  "source": "tat_restaurants",
  "source_type": "directory_listed",
  "phone": "076 370 200",
  "website": null,
  "dietary_hint": [],
  "completeness": 6
 },
 {
  "name": "SEA CALM Cafe&Bistro (สีคราม คาเฟ่)",
  "name_en": null,
  "lat": 8.101973,
  "lng": 98.30268,
  "category": "Local Food",
  "source": "tat_restaurants",
  "source_type": "directory_listed",
  "phone": null,
  "website": null,
  "dietary_hint": [],
  "completeness": 6
 },
 {
  "name": "SKYE Beach Club",
  "name_en": null,
  "lat": 8.0884179,
  "lng": 98.2972639,
  "category": "Local Food",
  "source": "tat_restaurants",
  "source_type": "directory_listed",
  "phone": null,
  "website": null,
  "dietary_hint": [],
  "completeness": 6
 },
 {
  "name": "Salad Memory Healthy Café Phuket",
  "name_en": null,
  "lat": 7.771959,
  "lng": 98.321244,
  "category": "Local Food",
  "source": "tat_restaurants",
  "source_type": "directory_listed",
  "phone": null,
  "website": null,
  "dietary_hint": [],
  "completeness": 6
 },
 {
  "name": "Sand Box Restaurant and Bar",
  "name_en": null,
  "lat": 8.1551054,
  "lng": 98.2963146,
  "category": "Local Food",
  "source": "tat_restaurants",
  "source_type": "directory_listed",
  "phone": "076 363 999",
  "website": null,
  "dietary_hint": [],
  "completeness": 6
 },
 {
  "name": "Satomi Japanese Restaurant",
  "name_en": null,
  "lat": 7.8830347,
  "lng": 98.389043,
  "category": "Local Food",
  "source": "tat_restaurants",
  "source_type": "directory_listed",
  "phone": "076 211 133",
  "website": null,
  "dietary_hint": [],
  "completeness": 6
 },
 {
  "name": "Sea Salt Lounge & Grill",
  "name_en": null,
  "lat": 7.908505,
  "lng": 98.296694,
  "category": "Local Food",
  "source": "tat_restaurants",
  "source_type": "directory_listed",
  "phone": "076 623 555",
  "website": null,
  "dietary_hint": [],
  "completeness": 6
 },
 {
  "name": "Simple Box Cafe",
  "name_en": null,
  "lat": 7.9071329,
  "lng": 98.3733899,
  "category": "Local Food",
  "source": "tat_restaurants",
  "source_type": "directory_listed",
  "phone": null,
  "website": null,
  "dietary_hint": [],
  "completeness": 6
 },
 {
  "name": "Smokin' Fish",
  "name_en": null,
  "lat": 7.8827761,
  "lng": 98.3982017,
  "category": "Local Food",
  "source": "tat_restaurants",
  "source_type": "directory_listed",
  "phone": "076 609 331",
  "website": null,
  "dietary_hint": [],
  "completeness": 6
 },
 {
  "name": "Story Crepes (สตอรี่เครป)",
  "name_en": null,
  "lat": 7.906776,
  "lng": 98.37336,
  "category": "Local Food",
  "source": "tat_restaurants",
  "source_type": "directory_listed",
  "phone": null,
  "website": null,
  "dietary_hint": [],
  "completeness": 6
 },
 {
  "name": "Suay Restaurant (สวย เรสเตอร์รอง)",
  "name_en": null,
  "lat": 7.881237,
  "lng": 98.388411,
  "category": "Local Food",
  "source": "tat_restaurants",
  "source_type": "directory_listed",
  "phone": null,
  "website": null,
  "dietary_hint": [],
  "completeness": 6
 },
 {
  "name": "Sugar Dark Cafe' (ชูก้า ดาร์ก คาเฟ่)",
  "name_en": null,
  "lat": 7.887839,
  "lng": 98.371694,
  "category": "Café & Dessert",
  "source": "tat_restaurants",
  "source_type": "directory_listed",
  "phone": null,
  "website": null,
  "dietary_hint": [],
  "completeness": 6
 },
 {
  "name": "Sunset Bay Phuket",
  "name_en": null,
  "lat": 7.910204,
  "lng": 98.2960475,
  "category": "Local Food",
  "source": "tat_restaurants",
  "source_type": "directory_listed",
  "phone": null,
  "website": null,
  "dietary_hint": [],
  "completeness": 6
 },
 {
  "name": "Surf House Phuket - Patong Beach",
  "name_en": null,
  "lat": 7.8166215,
  "lng": 98.2995701,
  "category": "Local Food",
  "source": "tat_restaurants",
  "source_type": "directory_listed",
  "phone": null,
  "website": null,
  "dietary_hint": [],
  "completeness": 6
 },
 {
  "name": "Sweet Devil (สวีทเดวิล)",
  "name_en": null,
  "lat": 7.878349,
  "lng": 98.380698,
  "category": "Café & Dessert",
  "source": "tat_restaurants",
  "source_type": "directory_listed",
  "phone": null,
  "website": null,
  "dietary_hint": [],
  "completeness": 6
 },
 {
  "name": "Sweet Potato",
  "name_en": null,
  "lat": 7.882942,
  "lng": 98.380528,
  "category": "Local Food",
  "source": "tat_restaurants",
  "source_type": "directory_listed",
  "phone": null,
  "website": null,
  "dietary_hint": [],
  "completeness": 6
 },
 {
  "name": "Sweet Room",
  "name_en": null,
  "lat": 7.904935,
  "lng": 98.368432,
  "category": "Café & Dessert",
  "source": "tat_restaurants",
  "source_type": "directory_listed",
  "phone": null,
  "website": null,
  "dietary_hint": [],
  "completeness": 6
 },
 {
  "name": "Sweet n' Treats",
  "name_en": null,
  "lat": 7.888606,
  "lng": 98.383824,
  "category": "Local Food",
  "source": "tat_restaurants",
  "source_type": "directory_listed",
  "phone": null,
  "website": null,
  "dietary_hint": [],
  "completeness": 6
 },
 {
  "name": "T.e.cafe (ทีอีคาเฟ่)",
  "name_en": null,
  "lat": 7.8811079,
  "lng": 98.3886996,
  "category": "Café & Dessert",
  "source": "tat_restaurants",
  "source_type": "directory_listed",
  "phone": null,
  "website": null,
  "dietary_hint": [],
  "completeness": 6
 },
 {
  "name": "TANTITIUM (ตันติเตี๊ยม)",
  "name_en": null,
  "lat": 7.8866101,
  "lng": 98.3856933,
  "category": "Café & Dessert",
  "source": "tat_restaurants",
  "source_type": "directory_listed",
  "phone": "076 510 411",
  "website": null,
  "dietary_hint": [],
  "completeness": 6
 },
 {
  "name": "THE KALIMA RESORT & SPA",
  "name_en": null,
  "lat": 7.9172199,
  "lng": 98.2844882,
  "category": "Local Food",
  "source": "tat_restaurants",
  "source_type": "directory_listed",
  "phone": "076 358 999",
  "website": null,
  "dietary_hint": [],
  "completeness": 6
 },
 {
  "name": "THE PORT",
  "name_en": null,
  "lat": 7.89087,
  "lng": 98.293743,
  "category": "Local Food",
  "source": "tat_restaurants",
  "source_type": "directory_listed",
  "phone": null,
  "website": null,
  "dietary_hint": [],
  "completeness": 6
 },
 {
  "name": "Take Phuket",
  "name_en": null,
  "lat": 7.993937,
  "lng": 98.306506,
  "category": "Local Food",
  "source": "tat_restaurants",
  "source_type": "directory_listed",
  "phone": null,
  "website": null,
  "dietary_hint": [],
  "completeness": 6
 },
 {
  "name": "Thaivetro Ice cream",
  "name_en": null,
  "lat": 7.884628,
  "lng": 98.387519,
  "category": "Local Food",
  "source": "tat_restaurants",
  "source_type": "directory_listed",
  "phone": null,
  "website": null,
  "dietary_hint": [],
  "completeness": 6
 },
 {
  "name": "The BaBa Urban Heritage Cuisine Restaurant",
  "name_en": null,
  "lat": 7.883878,
  "lng": 98.38855,
  "category": "Local Food",
  "source": "tat_restaurants",
  "source_type": "directory_listed",
  "phone": "076 354 544",
  "website": null,
  "dietary_hint": [],
  "completeness": 6
 },
 {
  "name": "The Column Phuket",
  "name_en": null,
  "lat": 7.882548,
  "lng": 98.388442,
  "category": "Local Food",
  "source": "tat_restaurants",
  "source_type": "directory_listed",
  "phone": null,
  "website": null,
  "dietary_hint": [],
  "completeness": 6
 },
 {
  "name": "The Fat Chef (เดอะ แฟท เชฟ)",
  "name_en": null,
  "lat": 7.959057,
  "lng": 98.384165,
  "category": "Local Food",
  "source": "tat_restaurants",
  "source_type": "directory_listed",
  "phone": "076 609 298",
  "website": null,
  "dietary_hint": [],
  "completeness": 6
 },
 {
  "name": "The Feelsion Cafe ฟีลฉัน",
  "name_en": null,
  "lat": 7.871965,
  "lng": 98.394208,
  "category": "Café & Dessert",
  "source": "tat_restaurants",
  "source_type": "directory_listed",
  "phone": null,
  "website": null,
  "dietary_hint": [],
  "completeness": 6
 },
 {
  "name": "The Hidden Pôt Bakery & Café",
  "name_en": null,
  "lat": 7.9441885,
  "lng": 98.3961185,
  "category": "Café & Dessert",
  "source": "tat_restaurants",
  "source_type": "directory_listed",
  "phone": null,
  "website": null,
  "dietary_hint": [],
  "completeness": 6
 },
 {
  "name": "The Library Phuket",
  "name_en": null,
  "lat": 7.8825947,
  "lng": 98.3906403,
  "category": "Café & Dessert",
  "source": "tat_restaurants",
  "source_type": "directory_listed",
  "phone": null,
  "website": null,
  "dietary_hint": [],
  "completeness": 6
 },
 {
  "name": "The Naiyang Cafe",
  "name_en": null,
  "lat": 8.1011292,
  "lng": 98.305941,
  "category": "Local Food",
  "source": "tat_restaurants",
  "source_type": "directory_listed",
  "phone": null,
  "website": null,
  "dietary_hint": [
   "halal"
  ],
  "completeness": 6
 },
 {
  "name": "The Shelter Coffee",
  "name_en": null,
  "lat": 7.88639,
  "lng": 98.385886,
  "category": "Café & Dessert",
  "source": "tat_restaurants",
  "source_type": "directory_listed",
  "phone": null,
  "website": null,
  "dietary_hint": [],
  "completeness": 6
 },
 {
  "name": "The Spartan Burger & Souvlaki BarChalong",
  "name_en": null,
  "lat": 7.8588974,
  "lng": 98.3419986,
  "category": "Local Food",
  "source": "tat_restaurants",
  "source_type": "directory_listed",
  "phone": null,
  "website": null,
  "dietary_hint": [],
  "completeness": 6
 },
 {
  "name": "The Tent",
  "name_en": null,
  "lat": 7.884978,
  "lng": 98.39087,
  "category": "Café & Dessert",
  "source": "tat_restaurants",
  "source_type": "directory_listed",
  "phone": "076 217 775",
  "website": null,
  "dietary_hint": [],
  "completeness": 6
 },
 {
  "name": "Three Monkeys Restaurant",
  "name_en": null,
  "lat": 7.875423,
  "lng": 98.355687,
  "category": "Local Food",
  "source": "tat_restaurants",
  "source_type": "directory_listed",
  "phone": null,
  "website": null,
  "dietary_hint": [],
  "completeness": 6
 },
 {
  "name": "Tiny bistro",
  "name_en": null,
  "lat": 7.887004,
  "lng": 98.390571,
  "category": "Local Food",
  "source": "tat_restaurants",
  "source_type": "directory_listed",
  "phone": "076 211 950",
  "website": null,
  "dietary_hint": [],
  "completeness": 6
 },
 {
  "name": "Tori Japanese Buffet (โทริ เจแปนนิส บุฟเฟ่ต์)",
  "name_en": null,
  "lat": 7.8937502,
  "lng": 98.3662293,
  "category": "Local Food",
  "source": "tat_restaurants",
  "source_type": "directory_listed",
  "phone": "076-221000 ",
  "website": null,
  "dietary_hint": [],
  "completeness": 6
 },
 {
  "name": "Torry's Ice cream",
  "name_en": null,
  "lat": 7.8855059,
  "lng": 98.3892372,
  "category": "Café & Dessert",
  "source": "tat_restaurants",
  "source_type": "directory_listed",
  "phone": "076 510 888",
  "website": null,
  "dietary_hint": [],
  "completeness": 6
 },
 {
  "name": "Tree kong",
  "name_en": null,
  "lat": 7.900322,
  "lng": 98.382604,
  "category": "Local Food",
  "source": "tat_restaurants",
  "source_type": "directory_listed",
  "phone": null,
  "website": null,
  "dietary_hint": [],
  "completeness": 6
 },
 {
  "name": "Tuna Ichiban (ทูน่าอิจิบัง)",
  "name_en": null,
  "lat": 7.8809137,
  "lng": 98.3715798,
  "category": "Local Food",
  "source": "tat_restaurants",
  "source_type": "directory_listed",
  "phone": "076 686 757",
  "website": null,
  "dietary_hint": [],
  "completeness": 6
 },
 {
  "name": "UOTERU SUISAN",
  "name_en": null,
  "lat": 7.772037,
  "lng": 98.320853,
  "category": "Local Food",
  "source": "tat_restaurants",
  "source_type": "directory_listed",
  "phone": "076 211 678",
  "website": null,
  "dietary_hint": [],
  "completeness": 6
 },
 {
  "name": "Uncle Jone’s Original Cake",
  "name_en": null,
  "lat": 7.9068474,
  "lng": 98.3742893,
  "category": "Café & Dessert",
  "source": "tat_restaurants",
  "source_type": "directory_listed",
  "phone": null,
  "website": null,
  "dietary_hint": [],
  "completeness": 6
 },
 {
  "name": "UnforgetTable (อันฟอร์เก็ทเทเบิล)",
  "name_en": null,
  "lat": 7.8835538,
  "lng": 98.3874849,
  "category": "Café & Dessert",
  "source": "tat_restaurants",
  "source_type": "directory_listed",
  "phone": null,
  "website": null,
  "dietary_hint": [],
  "completeness": 6
 },
 {
  "name": "VT แหนมเนือง",
  "name_en": null,
  "lat": 7.8852491,
  "lng": 98.3763474,
  "category": "Local Food",
  "source": "tat_restaurants",
  "source_type": "directory_listed",
  "phone": "076 354 500",
  "website": null,
  "dietary_hint": [],
  "completeness": 6
 },
 {
  "name": "Vanilla Sky Bar",
  "name_en": null,
  "lat": 7.94942,
  "lng": 98.27372,
  "category": "Local Food",
  "source": "tat_restaurants",
  "source_type": "directory_listed",
  "phone": "076 337 300",
  "website": null,
  "dietary_hint": [],
  "completeness": 6
 },
 {
  "name": "View Cafe Phuket",
  "name_en": null,
  "lat": 7.8701963,
  "lng": 98.3299144,
  "category": "Café & Dessert",
  "source": "tat_restaurants",
  "source_type": "directory_listed",
  "phone": null,
  "website": null,
  "dietary_hint": [],
  "completeness": 6
 },
 {
  "name": "WHITE BOX Restaurant",
  "name_en": null,
  "lat": 7.915068,
  "lng": 98.292551,
  "category": "Local Food",
  "source": "tat_restaurants",
  "source_type": "directory_listed",
  "phone": "076 346 271",
  "website": null,
  "dietary_hint": [],
  "completeness": 6
 },
 {
  "name": "WORK cafe'",
  "name_en": null,
  "lat": 7.8862791,
  "lng": 98.3920617,
  "category": "Café & Dessert",
  "source": "tat_restaurants",
  "source_type": "directory_listed",
  "phone": "076 682 991",
  "website": null,
  "dietary_hint": [],
  "completeness": 6
 },
 {
  "name": "Wanon Restaurant (วานร)",
  "name_en": null,
  "lat": 7.8763271,
  "lng": 98.351217,
  "category": "Local Food",
  "source": "tat_restaurants",
  "source_type": "directory_listed",
  "phone": "076 390 189",
  "website": null,
  "dietary_hint": [],
  "completeness": 6
 },
 {
  "name": "Waylawaan Patisserie",
  "name_en": null,
  "lat": 7.898219,
  "lng": 98.384089,
  "category": "Café & Dessert",
  "source": "tat_restaurants",
  "source_type": "directory_listed",
  "phone": null,
  "website": null,
  "dietary_hint": [],
  "completeness": 6
 },
 {
  "name": "We Cafe",
  "name_en": null,
  "lat": 7.8643253,
  "lng": 98.3469592,
  "category": "Local Food",
  "source": "tat_restaurants",
  "source_type": "directory_listed",
  "phone": null,
  "website": null,
  "dietary_hint": [],
  "completeness": 6
 },
 {
  "name": "Wine Connection Deli & Bistro",
  "name_en": null,
  "lat": 7.891674,
  "lng": 98.367789,
  "category": "Local Food",
  "source": "tat_restaurants",
  "source_type": "directory_listed",
  "phone": "076-307-064 ",
  "website": null,
  "dietary_hint": [],
  "completeness": 6
 },
 {
  "name": "Witthaya Home Brewing",
  "name_en": null,
  "lat": 7.898831,
  "lng": 98.383803,
  "category": "Café & Dessert",
  "source": "tat_restaurants",
  "source_type": "directory_listed",
  "phone": null,
  "website": null,
  "dietary_hint": [],
  "completeness": 6
 },
 {
  "name": "Yakiniku Koku (ยากินิกุ โกกุ)",
  "name_en": null,
  "lat": 7.884634,
  "lng": 98.387864,
  "category": "Local Food",
  "source": "tat_restaurants",
  "source_type": "directory_listed",
  "phone": null,
  "website": null,
  "dietary_hint": [],
  "completeness": 6
 },
 {
  "name": "Yoggie’s ice cream & coffee",
  "name_en": null,
  "lat": 7.914621,
  "lng": 98.371306,
  "category": "Café & Dessert",
  "source": "tat_restaurants",
  "source_type": "directory_listed",
  "phone": null,
  "website": null,
  "dietary_hint": [],
  "completeness": 6
 },
 {
  "name": "ZeaScape (ซีสเคป)",
  "name_en": null,
  "lat": 7.9227266,
  "lng": 98.278643,
  "category": "Local Food",
  "source": "tat_restaurants",
  "source_type": "directory_listed",
  "phone": "076 336 888",
  "website": null,
  "dietary_hint": [],
  "completeness": 6
 },
 {
  "name": "Zimplex (ซิมเพล็กซ์)",
  "name_en": null,
  "lat": 7.8827042,
  "lng": 98.3981833,
  "category": "Local Food",
  "source": "tat_restaurants",
  "source_type": "directory_listed",
  "phone": null,
  "website": null,
  "dietary_hint": [],
  "completeness": 6
 },
 {
  "name": "Zurich Bread Factory And Cafe",
  "name_en": null,
  "lat": 7.90673,
  "lng": 98.329269,
  "category": "Local Food",
  "source": "tat_restaurants",
  "source_type": "directory_listed",
  "phone": null,
  "website": null,
  "dietary_hint": [],
  "completeness": 6
 },
 {
  "name": "i46 old town",
  "name_en": null,
  "lat": 7.8849839,
  "lng": 98.3867917,
  "category": "Café & Dessert",
  "source": "tat_restaurants",
  "source_type": "directory_listed",
  "phone": null,
  "website": null,
  "dietary_hint": [],
  "completeness": 6
 },
 {
  "name": "jelly phuket (ฉายเอี่ยนภูเก็ต)",
  "name_en": null,
  "lat": 7.887534,
  "lng": 98.3760778,
  "category": "Local Food",
  "source": "tat_restaurants",
  "source_type": "directory_listed",
  "phone": null,
  "website": null,
  "dietary_hint": [],
  "completeness": 6
 },
 {
  "name": "joe's Downstairs",
  "name_en": null,
  "lat": 7.9076423,
  "lng": 98.2969251,
  "category": "Local Food",
  "source": "tat_restaurants",
  "source_type": "directory_listed",
  "phone": null,
  "website": null,
  "dietary_hint": [],
  "completeness": 6
 },
 {
  "name": "tiny coffee (ไทนี่คอฟฟี่)",
  "name_en": null,
  "lat": 7.8868219,
  "lng": 98.3905002,
  "category": "Local Food",
  "source": "tat_restaurants",
  "source_type": "directory_listed",
  "phone": "076 232 524",
  "website": null,
  "dietary_hint": [],
  "completeness": 6
 },
 {
  "name": "กระชังบังหมุด (Bangmud Seafoods)",
  "name_en": null,
  "lat": 7.933088,
  "lng": 98.413779,
  "category": "Local Food",
  "source": "tat_restaurants",
  "source_type": "directory_listed",
  "phone": null,
  "website": null,
  "dietary_hint": [],
  "completeness": 6
 },
 {
  "name": "กระเพราถาด byสามกอง",
  "name_en": null,
  "lat": 7.902275,
  "lng": 98.37884,
  "category": "Local Food",
  "source": "tat_restaurants",
  "source_type": "directory_listed",
  "phone": null,
  "website": null,
  "dietary_hint": [],
  "completeness": 6
 },
 {
  "name": "กล้วยทอด\"ภูเก็จ\"",
  "name_en": null,
  "lat": 7.896946181,
  "lng": 98.3844190836,
  "category": "Local Food",
  "source": "tat_restaurants",
  "source_type": "directory_listed",
  "phone": null,
  "website": null,
  "dietary_hint": [],
  "completeness": 6
 },
 {
  "name": "กล้วยน้ำว้า",
  "name_en": null,
  "lat": 7.9000553,
  "lng": 98.3821297,
  "category": "Café & Dessert",
  "source": "tat_restaurants",
  "source_type": "directory_listed",
  "phone": null,
  "website": null,
  "dietary_hint": [],
  "completeness": 6
 },
 {
  "name": "กาบกล้วย",
  "name_en": null,
  "lat": 7.9029863,
  "lng": 98.308318,
  "category": "Local Food",
  "source": "tat_restaurants",
  "source_type": "directory_listed",
  "phone": "076 346 832",
  "website": null,
  "dietary_hint": [],
  "completeness": 6
 },
 {
  "name": "กาเอ อาหารเช้า",
  "name_en": null,
  "lat": 7.9079066,
  "lng": 98.3709824,
  "category": "Café & Dessert",
  "source": "tat_restaurants",
  "source_type": "directory_listed",
  "phone": null,
  "website": null,
  "dietary_hint": [],
  "completeness": 6
 },
 {
  "name": "กำเสี่ย ติ่มซำ และ อาหารจีนฮ่องกง",
  "name_en": null,
  "lat": 7.875485,
  "lng": 98.379059,
  "category": "Local Food",
  "source": "tat_restaurants",
  "source_type": "directory_listed",
  "phone": null,
  "website": null,
  "dietary_hint": [],
  "completeness": 6
 },
 {
  "name": "กิตติก๋วยเตี๋ยวเป็ด ภูเก็ต",
  "name_en": null,
  "lat": 7.8998832,
  "lng": 98.3821768,
  "category": "Local Food",
  "source": "tat_restaurants",
  "source_type": "directory_listed",
  "phone": null,
  "website": null,
  "dietary_hint": [],
  "completeness": 6
 },
 {
  "name": "กินกับอี๋",
  "name_en": null,
  "lat": 7.979779,
  "lng": 98.333317,
  "category": "Local Food",
  "source": "tat_restaurants",
  "source_type": "directory_listed",
  "phone": null,
  "website": null,
  "dietary_hint": [],
  "completeness": 6
 },
 {
  "name": "กินสุข (Kinsook)",
  "name_en": null,
  "lat": 7.888729,
  "lng": 98.382044,
  "category": "Café & Dessert",
  "source": "tat_restaurants",
  "source_type": "directory_listed",
  "phone": null,
  "website": null,
  "dietary_hint": [
   "vegetarian"
  ],
  "completeness": 6
 },
 {
  "name": "กิมแจ้ (Kimjaephuket)",
  "name_en": null,
  "lat": 7.877414,
  "lng": 98.389289,
  "category": "Local Food",
  "source": "tat_restaurants",
  "source_type": "directory_listed",
  "phone": null,
  "website": null,
  "dietary_hint": [],
  "completeness": 6
 },
 {
  "name": "กู โรตี ชาชัก",
  "name_en": null,
  "lat": 7.8806901,
  "lng": 98.3739125,
  "category": "Café & Dessert",
  "source": "tat_restaurants",
  "source_type": "directory_listed",
  "phone": null,
  "website": null,
  "dietary_hint": [],
  "completeness": 6
 },
 {
  "name": "ก๋วยเตี๋ยวชากังราว",
  "name_en": null,
  "lat": 7.88148,
  "lng": 98.382674,
  "category": "Local Food",
  "source": "tat_restaurants",
  "source_type": "directory_listed",
  "phone": null,
  "website": null,
  "dietary_hint": [],
  "completeness": 6
 },
 {
  "name": "ก๋วยเตี๋ยวชามกะลาเขารัง",
  "name_en": null,
  "lat": 7.8875159,
  "lng": 98.3759457,
  "category": "Local Food",
  "source": "tat_restaurants",
  "source_type": "directory_listed",
  "phone": null,
  "website": null,
  "dietary_hint": [],
  "completeness": 6
 },
 {
  "name": "ก๋วยเตี๋ยวต้มยำ By Mr.Wut",
  "name_en": null,
  "lat": 7.88594,
  "lng": 98.389761,
  "category": "Local Food",
  "source": "tat_restaurants",
  "source_type": "directory_listed",
  "phone": null,
  "website": null,
  "dietary_hint": [],
  "completeness": 6
 },
 {
  "name": "ก๋วยเตี๋ยวต้มยำกุ้งมะนาวไข่หวาน",
  "name_en": null,
  "lat": 7.902952,
  "lng": 98.37773,
  "category": "Local Food",
  "source": "tat_restaurants",
  "source_type": "directory_listed",
  "phone": null,
  "website": null,
  "dietary_hint": [],
  "completeness": 6
 },
 {
  "name": "ก๋วยเตี๋ยวถูกปาก (Thookpak)",
  "name_en": null,
  "lat": 7.901918,
  "lng": 98.377193,
  "category": "Local Food",
  "source": "tat_restaurants",
  "source_type": "directory_listed",
  "phone": null,
  "website": null,
  "dietary_hint": [],
  "completeness": 6
 },
 {
  "name": "ก๋วยเตี๋ยวหมูเลียง (Mooleang Noodle)",
  "name_en": null,
  "lat": 7.8972714,
  "lng": 98.4027883,
  "category": "Local Food",
  "source": "tat_restaurants",
  "source_type": "directory_listed",
  "phone": "076 525 808",
  "website": null,
  "dietary_hint": [],
  "completeness": 6
 },
 {
  "name": "ก๋วยเตี๋ยวเนื้อวัวรับอรุณ (Rap Arun Meat Noodle)",
  "name_en": null,
  "lat": 7.90057,
  "lng": 98.380234,
  "category": "Local Food",
  "source": "tat_restaurants",
  "source_type": "directory_listed",
  "phone": null,
  "website": null,
  "dietary_hint": [],
  "completeness": 6
 },
 {
  "name": "ก๋วยเตี๋ยวเรือหางยาว (Longlaii Noodle)",
  "name_en": null,
  "lat": 7.9074555,
  "lng": 98.3483412,
  "category": "Local Food",
  "source": "tat_restaurants",
  "source_type": "directory_listed",
  "phone": null,
  "website": null,
  "dietary_hint": [],
  "completeness": 6
 },
 {
  "name": "ก๋วยเตี๋ยวเรืออัมพวา (AMPHAWA NOODLE)",
  "name_en": null,
  "lat": 7.909432,
  "lng": 98.370936,
  "category": "Local Food",
  "source": "tat_restaurants",
  "source_type": "directory_listed",
  "phone": null,
  "website": null,
  "dietary_hint": [],
  "completeness": 6
 },
 {
  "name": "ขนมจีนจี้ลิ่ว (Kanom Jeen Jee Leaw)",
  "name_en": null,
  "lat": 8.0218981,
  "lng": 98.3348535,
  "category": "Local Food",
  "source": "tat_restaurants",
  "source_type": "directory_listed",
  "phone": null,
  "website": null,
  "dietary_hint": [],
  "completeness": 6
 },
 {
  "name": "ขนมจีนแม่ติ่ง (Khanomchin Mae Ting)",
  "name_en": null,
  "lat": 7.88875,
  "lng": 98.385169,
  "category": "Local Food",
  "source": "tat_restaurants",
  "source_type": "directory_listed",
  "phone": null,
  "website": null,
  "dietary_hint": [],
  "completeness": 6
 },
 {
  "name": "ขนำจ่าหอย (Kanum Jahoi)",
  "name_en": null,
  "lat": 7.871092,
  "lng": 98.391163,
  "category": "Local Food",
  "source": "tat_restaurants",
  "source_type": "directory_listed",
  "phone": null,
  "website": null,
  "dietary_hint": [],
  "completeness": 6
 },
 {
  "name": "ขาหมูโบราณ กะทู้ แอนด์ เดอะ คาเฟ่",
  "name_en": null,
  "lat": 7.923633,
  "lng": 98.379928,
  "category": "Local Food",
  "source": "tat_restaurants",
  "source_type": "directory_listed",
  "phone": null,
  "website": null,
  "dietary_hint": [],
  "completeness": 6
 },
 {
  "name": "ขาใหญ่ ไก่ซุปเปอร์",
  "name_en": null,
  "lat": 7.8830504,
  "lng": 98.3974466,
  "category": "Local Food",
  "source": "tat_restaurants",
  "source_type": "directory_listed",
  "phone": null,
  "website": null,
  "dietary_hint": [],
  "completeness": 6
 },
 {
  "name": "ข้าวซอยล้านนา ภูเก็ต",
  "name_en": null,
  "lat": 7.901954,
  "lng": 98.352472,
  "category": "Local Food",
  "source": "tat_restaurants",
  "source_type": "directory_listed",
  "phone": null,
  "website": null,
  "dietary_hint": [],
  "completeness": 6
 },
 {
  "name": "ข้าวต้มเจ๊หลี (JeLee)",
  "name_en": null,
  "lat": 7.8852436,
  "lng": 98.3841459,
  "category": "Local Food",
  "source": "tat_restaurants",
  "source_type": "directory_listed",
  "phone": null,
  "website": null,
  "dietary_hint": [
   "vegetarian"
  ],
  "completeness": 6
 },
 {
  "name": "ข้าวต้มแป๊ะอ้วน (Khao Thom Paeaun)",
  "name_en": null,
  "lat": 7.9071613,
  "lng": 98.3755886,
  "category": "Local Food",
  "source": "tat_restaurants",
  "source_type": "directory_listed",
  "phone": null,
  "website": null,
  "dietary_hint": [],
  "completeness": 6
 },
 {
  "name": "ครัวคนละสวน (Konlasuan BBQ&Hangout)",
  "name_en": null,
  "lat": 7.9126793,
  "lng": 98.3369172,
  "category": "Local Food",
  "source": "tat_restaurants",
  "source_type": "directory_listed",
  "phone": null,
  "website": null,
  "dietary_hint": [],
  "completeness": 6
 },
 {
  "name": "ครัวบ้านขนม (Baan Kanom)",
  "name_en": null,
  "lat": 7.8807505,
  "lng": 98.3710157,
  "category": "Local Food",
  "source": "tat_restaurants",
  "source_type": "directory_listed",
  "phone": "076 378 338",
  "website": null,
  "dietary_hint": [],
  "completeness": 6
 },
 {
  "name": "ครัวพระยาภูเก็ต",
  "name_en": null,
  "lat": 7.974929,
  "lng": 98.370503,
  "category": "Local Food",
  "source": "tat_restaurants",
  "source_type": "directory_listed",
  "phone": null,
  "website": null,
  "dietary_hint": [],
  "completeness": 6
 },
 {
  "name": "ครัวยายด้วง",
  "name_en": null,
  "lat": 8.062389,
  "lng": 98.3496579,
  "category": "Local Food",
  "source": "tat_restaurants",
  "source_type": "directory_listed",
  "phone": null,
  "website": null,
  "dietary_hint": [],
  "completeness": 6
 },
 {
  "name": "ครัวย่าหยา (Yaya Kitchen)",
  "name_en": null,
  "lat": 8.0147982,
  "lng": 98.3382566,
  "category": "Local Food",
  "source": "tat_restaurants",
  "source_type": "directory_listed",
  "phone": "076 313 556",
  "website": null,
  "dietary_hint": [],
  "completeness": 6
 },
 {
  "name": "ครัวศิลา ข้าวแกงไทย",
  "name_en": null,
  "lat": 7.9033659,
  "lng": 98.3770949,
  "category": "Local Food",
  "source": "tat_restaurants",
  "source_type": "directory_listed",
  "phone": null,
  "website": null,
  "dietary_hint": [],
  "completeness": 6
 },
 {
  "name": "ครัวอินดี้ by สเต็กยอดนักสู้",
  "name_en": null,
  "lat": 7.9077731,
  "lng": 98.3761213,
  "category": "Local Food",
  "source": "tat_restaurants",
  "source_type": "directory_listed",
  "phone": null,
  "website": null,
  "dietary_hint": [],
  "completeness": 6
 },
 {
  "name": "ครัวเก๋ากึ๊ก",
  "name_en": null,
  "lat": 7.880566,
  "lng": 98.379998,
  "category": "Local Food",
  "source": "tat_restaurants",
  "source_type": "directory_listed",
  "phone": null,
  "website": null,
  "dietary_hint": [],
  "completeness": 6
 },
 {
  "name": "ครัวเชิงเล (บ้านป่าสัก)",
  "name_en": null,
  "lat": 8.0097748,
  "lng": 98.315372,
  "category": "Local Food",
  "source": "tat_restaurants",
  "source_type": "directory_listed",
  "phone": null,
  "website": null,
  "dietary_hint": [],
  "completeness": 6
 },
 {
  "name": "ครัวโอมภูเก็ต",
  "name_en": null,
  "lat": 7.9071863,
  "lng": 98.349196,
  "category": "Local Food",
  "source": "tat_restaurants",
  "source_type": "directory_listed",
  "phone": null,
  "website": null,
  "dietary_hint": [],
  "completeness": 6
 },
 {
  "name": "ครัวไพลิน",
  "name_en": null,
  "lat": 7.931739,
  "lng": 98.323538,
  "category": "Local Food",
  "source": "tat_restaurants",
  "source_type": "directory_listed",
  "phone": null,
  "website": null,
  "dietary_hint": [],
  "completeness": 6
 },
 {
  "name": "คุณจี๊ดยอดผัก (Khun Jeed)",
  "name_en": null,
  "lat": 7.883681,
  "lng": 98.389439,
  "category": "Local Food",
  "source": "tat_restaurants",
  "source_type": "directory_listed",
  "phone": "076 258 129",
  "website": null,
  "dietary_hint": [],
  "completeness": 6
 },
 {
  "name": "คุณนายสาม",
  "name_en": null,
  "lat": 7.8842579,
  "lng": 98.3906646,
  "category": "Local Food",
  "source": "tat_restaurants",
  "source_type": "directory_listed",
  "phone": null,
  "website": null,
  "dietary_hint": [],
  "completeness": 6
 },
 {
  "name": "คุณภา (Khun Pha)",
  "name_en": null,
  "lat": 7.775662,
  "lng": 98.32879,
  "category": "Local Food",
  "source": "tat_restaurants",
  "source_type": "directory_listed",
  "phone": "076 613 647",
  "website": null,
  "dietary_hint": [],
  "completeness": 6
 },
 {
  "name": "คู่ขวัญ (Khu Khwan Restaurant)",
  "name_en": null,
  "lat": 7.877849,
  "lng": 98.393251,
  "category": "Local Food",
  "source": "tat_restaurants",
  "source_type": "directory_listed",
  "phone": "076 214 213",
  "website": null,
  "dietary_hint": [],
  "completeness": 6
 },
 {
  "name": "จั๊กจั่นซีฟู้ด",
  "name_en": null,
  "lat": 8.1575643,
  "lng": 98.3165372,
  "category": "Local Food",
  "source": "tat_restaurants",
  "source_type": "directory_listed",
  "phone": null,
  "website": null,
  "dietary_hint": [],
  "completeness": 6
 },
 {
  "name": "จุดสามจุด ภูเก็ต",
  "name_en": null,
  "lat": 7.910213,
  "lng": 98.3713824,
  "category": "Local Food",
  "source": "tat_restaurants",
  "source_type": "directory_listed",
  "phone": null,
  "website": null,
  "dietary_hint": [],
  "completeness": 6
 },
 {
  "name": "จ่วนเฮี้ยง พูนผล",
  "name_en": null,
  "lat": 7.877692,
  "lng": 98.385679,
  "category": "Local Food",
  "source": "tat_restaurants",
  "source_type": "directory_listed",
  "phone": "076210795 ",
  "website": null,
  "dietary_hint": [],
  "completeness": 6
 },
 {
  "name": "ฉ่ำ Chum Bar & Restaurants",
  "name_en": null,
  "lat": 7.899117,
  "lng": 98.3575394,
  "category": "Local Food",
  "source": "tat_restaurants",
  "source_type": "directory_listed",
  "phone": null,
  "website": null,
  "dietary_hint": [],
  "completeness": 6
 },
 {
  "name": "ฉ๋ายเซียนฟง ติ่มซำ",
  "name_en": null,
  "lat": 7.8735548,
  "lng": 98.3663372,
  "category": "Local Food",
  "source": "tat_restaurants",
  "source_type": "directory_listed",
  "phone": null,
  "website": null,
  "dietary_hint": [],
  "completeness": 6
 },
 {
  "name": "ชมจันทร์ (Chomchan by Onechun)",
  "name_en": null,
  "lat": 7.9003155,
  "lng": 98.3820776,
  "category": "Local Food",
  "source": "tat_restaurants",
  "source_type": "directory_listed",
  "phone": "076 605 954",
  "website": null,
  "dietary_hint": [],
  "completeness": 6
 },
 {
  "name": "ชา เทพ Cha-tap (ชา เทพ&โรตี)",
  "name_en": null,
  "lat": 7.9817552,
  "lng": 98.2981847,
  "category": "Café & Dessert",
  "source": "tat_restaurants",
  "source_type": "directory_listed",
  "phone": null,
  "website": null,
  "dietary_hint": [],
  "completeness": 6
 },
 {
  "name": "ชาบู ชาบู นางใน",
  "name_en": null,
  "lat": 7.8831361,
  "lng": 98.3875104,
  "category": "Local Food",
  "source": "tat_restaurants",
  "source_type": "directory_listed",
  "phone": null,
  "website": null,
  "dietary_hint": [],
  "completeness": 6
 },
 {
  "name": "ชาบูที่รัก",
  "name_en": null,
  "lat": 7.9005463,
  "lng": 98.3816317,
  "category": "Local Food",
  "source": "tat_restaurants",
  "source_type": "directory_listed",
  "phone": null,
  "website": null,
  "dietary_hint": [],
  "completeness": 6
 },
 {
  "name": "ชาบูอินดี้ ภูเก็ต",
  "name_en": null,
  "lat": 7.883507,
  "lng": 98.388483,
  "category": "Local Food",
  "source": "tat_restaurants",
  "source_type": "directory_listed",
  "phone": null,
  "website": null,
  "dietary_hint": [],
  "completeness": 6
 },
 {
  "name": "ชายเลซีฟู้ด (Chay Lay Seafood)",
  "name_en": null,
  "lat": 7.775871,
  "lng": 98.329164,
  "category": "Local Food",
  "source": "tat_restaurants",
  "source_type": "directory_listed",
  "phone": "076-613-599",
  "website": null,
  "dietary_hint": [],
  "completeness": 6
 },
 {
  "name": "ซาลาเปาอบ ภูเก็ต",
  "name_en": null,
  "lat": 7.879387,
  "lng": 98.393523,
  "category": "Local Food",
  "source": "tat_restaurants",
  "source_type": "directory_listed",
  "phone": null,
  "website": null,
  "dietary_hint": [],
  "completeness": 6
 },
 {
  "name": "ซิน ซิน บะหมี่เบตง",
  "name_en": null,
  "lat": 7.902325,
  "lng": 98.377891,
  "category": "Local Food",
  "source": "tat_restaurants",
  "source_type": "directory_listed",
  "phone": null,
  "website": null,
  "dietary_hint": [],
  "completeness": 6
 },
 {
  "name": "ซีเคร็ทคลิฟ (SECRET CLIFF)",
  "name_en": null,
  "lat": 7.860714,
  "lng": 98.2839813,
  "category": "Local Food",
  "source": "tat_restaurants",
  "source_type": "directory_listed",
  "phone": "076 530 321-3",
  "website": null,
  "dietary_hint": [],
  "completeness": 6
 },
 {
  "name": "ซุปเปอร์ติ่มซำ 3",
  "name_en": null,
  "lat": 8.094311,
  "lng": 98.31381,
  "category": "Local Food",
  "source": "tat_restaurants",
  "source_type": "directory_listed",
  "phone": null,
  "website": null,
  "dietary_hint": [],
  "completeness": 6
 },
 {
  "name": "ซุปเปอร์ติ่มซำภูเก็ต",
  "name_en": null,
  "lat": 7.885801,
  "lng": 98.3976,
  "category": "Local Food",
  "source": "tat_restaurants",
  "source_type": "directory_listed",
  "phone": null,
  "website": null,
  "dietary_hint": [],
  "completeness": 6
 },
 {
  "name": "ซุปเปอร์อินดี้ (ซุปเปอร์อินดี้ สามกอง)",
  "name_en": null,
  "lat": 7.902544,
  "lng": 98.378242,
  "category": "Local Food",
  "source": "tat_restaurants",
  "source_type": "directory_listed",
  "phone": null,
  "website": null,
  "dietary_hint": [],
  "completeness": 6
 },
 {
  "name": "ซู่ซรินขนมหวาน",
  "name_en": null,
  "lat": 7.8846233,
  "lng": 98.3825522,
  "category": "Local Food",
  "source": "tat_restaurants",
  "source_type": "directory_listed",
  "phone": null,
  "website": null,
  "dietary_hint": [],
  "completeness": 6
 },
 {
  "name": "ต.ตำ (Tortum)",
  "name_en": null,
  "lat": 7.8505034,
  "lng": 98.3351731,
  "category": "Local Food",
  "source": "tat_restaurants",
  "source_type": "directory_listed",
  "phone": null,
  "website": null,
  "dietary_hint": [],
  "completeness": 6
 },
 {
  "name": "ตรอกน้ำลายไหล",
  "name_en": null,
  "lat": 7.8858599476,
  "lng": 98.3875493984,
  "category": "Local Food",
  "source": "tat_restaurants",
  "source_type": "directory_listed",
  "phone": null,
  "website": null,
  "dietary_hint": [],
  "completeness": 6
 },
 {
  "name": "ตัวจะแตก ซีฟู้ด",
  "name_en": null,
  "lat": 7.8830851,
  "lng": 98.3901079,
  "category": "Local Food",
  "source": "tat_restaurants",
  "source_type": "directory_listed",
  "phone": null,
  "website": null,
  "dietary_hint": [],
  "completeness": 6
 },
 {
  "name": "ตาโต ก๋วยเตี๋ยวต้มยำน้ำข้น",
  "name_en": null,
  "lat": 7.8729296,
  "lng": 98.3906837,
  "category": "Local Food",
  "source": "tat_restaurants",
  "source_type": "directory_listed",
  "phone": null,
  "website": null,
  "dietary_hint": [],
  "completeness": 6
 },
 {
  "name": "ตำย่าง (TumYang)",
  "name_en": null,
  "lat": 7.8894239,
  "lng": 98.3870215,
  "category": "Local Food",
  "source": "tat_restaurants",
  "source_type": "directory_listed",
  "phone": null,
  "website": null,
  "dietary_hint": [],
  "completeness": 6
 },
 {
  "name": "ตำสุดแซ่บ นาคา",
  "name_en": null,
  "lat": 7.8805456,
  "lng": 98.3777091,
  "category": "Local Food",
  "source": "tat_restaurants",
  "source_type": "directory_listed",
  "phone": null,
  "website": null,
  "dietary_hint": [],
  "completeness": 6
 },
 {
  "name": "ตำหรอย by ครัวแม่ดา",
  "name_en": null,
  "lat": 7.8255262,
  "lng": 98.3431244,
  "category": "Local Food",
  "source": "tat_restaurants",
  "source_type": "directory_listed",
  "phone": null,
  "website": null,
  "dietary_hint": [],
  "completeness": 6
 },
 {
  "name": "ตำเว้ยเฮ้ย",
  "name_en": null,
  "lat": 7.90832,
  "lng": 98.371636,
  "category": "Local Food",
  "source": "tat_restaurants",
  "source_type": "directory_listed",
  "phone": null,
  "website": null,
  "dietary_hint": [],
  "completeness": 6
 },
 {
  "name": "ตู้กับข้าว (Tu Kab Khao Restaurant Phuket)",
  "name_en": null,
  "lat": 7.8836764,
  "lng": 98.3879528,
  "category": "Local Food",
  "source": "tat_restaurants",
  "source_type": "directory_listed",
  "phone": "076 608 888",
  "website": null,
  "dietary_hint": [],
  "completeness": 6
 },
 {
  "name": "ต้ม ยำ ตำ ย่าง",
  "name_en": null,
  "lat": 7.880462,
  "lng": 98.373142,
  "category": "Local Food",
  "source": "tat_restaurants",
  "source_type": "directory_listed",
  "phone": null,
  "website": null,
  "dietary_hint": [],
  "completeness": 6
 },
 {
  "name": "ถลางกุ้งกระทะบุฟเฟ่ต์ (THALANG BARBEQUE BUFFET)",
  "name_en": null,
  "lat": 8.023141,
  "lng": 98.32741,
  "category": "Local Food",
  "source": "tat_restaurants",
  "source_type": "directory_listed",
  "phone": null,
  "website": null,
  "dietary_hint": [],
  "completeness": 6
 },
 {
  "name": "ที-วิลล่า",
  "name_en": null,
  "lat": 8.091893,
  "lng": 98.306653,
  "category": "Local Food",
  "source": "tat_restaurants",
  "source_type": "directory_listed",
  "phone": "076 372 700",
  "website": null,
  "dietary_hint": [],
  "completeness": 6
 },
 {
  "name": "ทุ่งคา กาแฟ (Tunk Ka Cafe)",
  "name_en": null,
  "lat": 7.892803,
  "lng": 98.380299,
  "category": "Local Food",
  "source": "tat_restaurants",
  "source_type": "directory_listed",
  "phone": null,
  "website": null,
  "dietary_hint": [],
  "completeness": 6
 },
 {
  "name": "นมหมี",
  "name_en": null,
  "lat": 7.902279,
  "lng": 98.3789276,
  "category": "Local Food",
  "source": "tat_restaurants",
  "source_type": "directory_listed",
  "phone": null,
  "website": null,
  "dietary_hint": [],
  "completeness": 6
 },
 {
  "name": "นาซิ อยัม",
  "name_en": null,
  "lat": 7.8805526,
  "lng": 98.3773422,
  "category": "Local Food",
  "source": "tat_restaurants",
  "source_type": "directory_listed",
  "phone": null,
  "website": null,
  "dietary_hint": [
   "halal"
  ],
  "completeness": 6
 },
 {
  "name": "นายยกหมูกระทะ (NAI YOK BARBEQUE)",
  "name_en": null,
  "lat": 7.915756,
  "lng": 98.371361,
  "category": "Local Food",
  "source": "tat_restaurants",
  "source_type": "directory_listed",
  "phone": null,
  "website": null,
  "dietary_hint": [],
  "completeness": 6
 },
 {
  "name": "นายยาว",
  "name_en": null,
  "lat": 7.8848247,
  "lng": 98.3978327,
  "category": "Local Food",
  "source": "tat_restaurants",
  "source_type": "directory_listed",
  "phone": "076 215 915",
  "website": null,
  "dietary_hint": [],
  "completeness": 6
 },
 {
  "name": "นิกิต้า (NIKITA'S)",
  "name_en": null,
  "lat": 7.7745877,
  "lng": 98.3262684,
  "category": "Local Food",
  "source": "tat_restaurants",
  "source_type": "directory_listed",
  "phone": null,
  "website": null,
  "dietary_hint": [],
  "completeness": 6
 },
 {
  "name": "นิยม168-หม่าล่าภูเก็ต",
  "name_en": null,
  "lat": 7.909328,
  "lng": 98.347933,
  "category": "Local Food",
  "source": "tat_restaurants",
  "source_type": "directory_listed",
  "phone": null,
  "website": null,
  "dietary_hint": [],
  "completeness": 6
 },
 {
  "name": "น้องเจภูเก็ต (Vegetarian Restaurant Nong J)",
  "name_en": null,
  "lat": 7.8866409,
  "lng": 98.3824226,
  "category": "Local Food",
  "source": "tat_restaurants",
  "source_type": "directory_listed",
  "phone": null,
  "website": null,
  "dietary_hint": [
   "vegetarian"
  ],
  "completeness": 6
 },
 {
  "name": "น้ำชาโต๊ะไม้",
  "name_en": null,
  "lat": 7.898891,
  "lng": 98.351517,
  "category": "Local Food",
  "source": "tat_restaurants",
  "source_type": "directory_listed",
  "phone": null,
  "website": null,
  "dietary_hint": [],
  "completeness": 6
 },
 {
  "name": "น้ำเต้าหู้เยาวราช",
  "name_en": null,
  "lat": 7.893574,
  "lng": 98.385884,
  "category": "Local Food",
  "source": "tat_restaurants",
  "source_type": "directory_listed",
  "phone": null,
  "website": null,
  "dietary_hint": [],
  "completeness": 6
 },
 {
  "name": "บะหมี่เกี๊ยวยากูซ่า กู้กู",
  "name_en": null,
  "lat": 7.9076551,
  "lng": 98.4018598,
  "category": "Local Food",
  "source": "tat_restaurants",
  "source_type": "directory_listed",
  "phone": null,
  "website": null,
  "dietary_hint": [],
  "completeness": 6
 },
 {
  "name": "บังดีนโรตีสะพานหินยามเย็น",
  "name_en": null,
  "lat": 7.8713778,
  "lng": 98.3940425,
  "category": "Café & Dessert",
  "source": "tat_restaurants",
  "source_type": "directory_listed",
  "phone": null,
  "website": null,
  "dietary_hint": [],
  "completeness": 6
 },
 {
  "name": "บางเจี้ยม ติ่มซำ",
  "name_en": null,
  "lat": 7.914342,
  "lng": 98.332244,
  "category": "Local Food",
  "source": "tat_restaurants",
  "source_type": "directory_listed",
  "phone": null,
  "website": null,
  "dietary_hint": [
   "vegetarian"
  ],
  "completeness": 6
 },
 {
  "name": "บางแปซีฟู้ด (Bang Pae Seafood)",
  "name_en": null,
  "lat": 8.036475,
  "lng": 98.41487,
  "category": "Local Food",
  "source": "tat_restaurants",
  "source_type": "directory_listed",
  "phone": null,
  "website": null,
  "dietary_hint": [],
  "completeness": 6
 },
 {
  "name": "บุฟเฟ่ต์บ้านปิ้งย่างภูเก็ต 199",
  "name_en": null,
  "lat": 7.846399,
  "lng": 98.350963,
  "category": "Local Food",
  "source": "tat_restaurants",
  "source_type": "directory_listed",
  "phone": "076604019",
  "website": null,
  "dietary_hint": [],
  "completeness": 6
 },
 {
  "name": "บ้านขนมไทยชาววัง (Ban Ka Nom Thai Chio Wang)",
  "name_en": null,
  "lat": 7.8977308,
  "lng": 98.4032681,
  "category": "Local Food",
  "source": "tat_restaurants",
  "source_type": "directory_listed",
  "phone": null,
  "website": null,
  "dietary_hint": [],
  "completeness": 6
 },
 {
  "name": "บ้านปูทะเล ภูเก็ต",
  "name_en": null,
  "lat": 7.8812557,
  "lng": 98.3686763,
  "category": "Local Food",
  "source": "tat_restaurants",
  "source_type": "directory_listed",
  "phone": null,
  "website": null,
  "dietary_hint": [],
  "completeness": 6
 },
 {
  "name": "บ้านสวนกาแฟเขาโต๊ะแซะ",
  "name_en": null,
  "lat": 7.9071417,
  "lng": 98.3980111,
  "category": "Local Food",
  "source": "tat_restaurants",
  "source_type": "directory_listed",
  "phone": null,
  "website": null,
  "dietary_hint": [],
  "completeness": 6
 },
 {
  "name": "บ้านหมี่แป๊ะเถว (PEHTEOW NOODLE HOUSE)",
  "name_en": null,
  "lat": 7.9019139,
  "lng": 98.3771984,
  "category": "Local Food",
  "source": "tat_restaurants",
  "source_type": "directory_listed",
  "phone": "076-219046",
  "website": null,
  "dietary_hint": [],
  "completeness": 6
 },
 {
  "name": "บ้านเจ้าฟ้า ติ่มซำนึ่งสด",
  "name_en": null,
  "lat": 7.8773619,
  "lng": 98.380039,
  "category": "Local Food",
  "source": "tat_restaurants",
  "source_type": "directory_listed",
  "phone": null,
  "website": null,
  "dietary_hint": [
   "vegetarian"
  ],
  "completeness": 6
 },
 {
  "name": "บ้านแม่สาย @ภูเก็ต",
  "name_en": null,
  "lat": 7.880952,
  "lng": 98.369858,
  "category": "Local Food",
  "source": "tat_restaurants",
  "source_type": "directory_listed",
  "phone": null,
  "website": null,
  "dietary_hint": [],
  "completeness": 6
 },
 {
  "name": "ปลาหมอสี (Pra Mho Se)",
  "name_en": null,
  "lat": 7.874706,
  "lng": 98.39023,
  "category": "Local Food",
  "source": "tat_restaurants",
  "source_type": "directory_listed",
  "phone": "076 210 095",
  "website": null,
  "dietary_hint": [],
  "completeness": 6
 },
 {
  "name": "ปอเปี๊ยะสดหล่อโรง",
  "name_en": null,
  "lat": 7.883665,
  "lng": 98.381378,
  "category": "Local Food",
  "source": "tat_restaurants",
  "source_type": "directory_listed",
  "phone": null,
  "website": null,
  "dietary_hint": [],
  "completeness": 6
 },
 {
  "name": "ปันตัย",
  "name_en": null,
  "lat": 7.9163329,
  "lng": 98.2909974,
  "category": "Local Food",
  "source": "tat_restaurants",
  "source_type": "directory_listed",
  "phone": null,
  "website": null,
  "dietary_hint": [
   "halal"
  ],
  "completeness": 6
 },
 {
  "name": "ปากพนังหมูกระทะ",
  "name_en": null,
  "lat": 7.8685526,
  "lng": 98.3792908,
  "category": "Local Food",
  "source": "tat_restaurants",
  "source_type": "directory_listed",
  "phone": null,
  "website": null,
  "dietary_hint": [],
  "completeness": 6
 },
 {
  "name": "ปินยาน่า",
  "name_en": null,
  "lat": 8.0148513,
  "lng": 98.3382459,
  "category": "Café & Dessert",
  "source": "tat_restaurants",
  "source_type": "directory_listed",
  "phone": null,
  "website": null,
  "dietary_hint": [],
  "completeness": 6
 },
 {
  "name": "ป่าหล่าย ซีฟู้ด",
  "name_en": null,
  "lat": 7.838651,
  "lng": 98.364608,
  "category": "Local Food",
  "source": "tat_restaurants",
  "source_type": "directory_listed",
  "phone": "076 282 174",
  "website": null,
  "dietary_hint": [],
  "completeness": 6
 },
 {
  "name": "ผักบุ้งไฟแดง (Pakbung Fidang)",
  "name_en": null,
  "lat": 7.834147,
  "lng": 98.347517,
  "category": "Local Food",
  "source": "tat_restaurants",
  "source_type": "directory_listed",
  "phone": null,
  "website": null,
  "dietary_hint": [],
  "completeness": 6
 },
 {
  "name": "ผัดไทย หอยทอด สามกอง ภูเก็ต",
  "name_en": null,
  "lat": 7.902331,
  "lng": 98.37877,
  "category": "Local Food",
  "source": "tat_restaurants",
  "source_type": "directory_listed",
  "phone": null,
  "website": null,
  "dietary_hint": [],
  "completeness": 6
 },
 {
  "name": "ผัดไทยพานหิน",
  "name_en": null,
  "lat": 7.874689,
  "lng": 98.393695,
  "category": "Local Food",
  "source": "tat_restaurants",
  "source_type": "directory_listed",
  "phone": null,
  "website": null,
  "dietary_hint": [],
  "completeness": 6
 },
 {
  "name": "ผัดไทยแม่ยวนใจ",
  "name_en": null,
  "lat": 7.9169286,
  "lng": 98.3429903,
  "category": "Local Food",
  "source": "tat_restaurants",
  "source_type": "directory_listed",
  "phone": null,
  "website": null,
  "dietary_hint": [],
  "completeness": 6
 },
 {
  "name": "พิเศษ (Piset Restaurant Phuket)",
  "name_en": null,
  "lat": 7.888324,
  "lng": 98.386956,
  "category": "Local Food",
  "source": "tat_restaurants",
  "source_type": "directory_listed",
  "phone": null,
  "website": null,
  "dietary_hint": [],
  "completeness": 6
 },
 {
  "name": "พี่ป้อมขนมจีน (Kanomjeen Pee Pom)",
  "name_en": null,
  "lat": 7.886772,
  "lng": 98.374714,
  "category": "Local Food",
  "source": "tat_restaurants",
  "source_type": "directory_listed",
  "phone": null,
  "website": null,
  "dietary_hint": [],
  "completeness": 6
 },
 {
  "name": "พุงกาง BBQ บุฟเฟ่ต์",
  "name_en": null,
  "lat": 7.893284,
  "lng": 98.366192,
  "category": "Local Food",
  "source": "tat_restaurants",
  "source_type": "directory_listed",
  "phone": null,
  "website": null,
  "dietary_hint": [],
  "completeness": 6
 },
 {
  "name": "ฟองนม (Fong Nom)",
  "name_en": null,
  "lat": 7.8996157,
  "lng": 98.3552589,
  "category": "Local Food",
  "source": "tat_restaurants",
  "source_type": "directory_listed",
  "phone": null,
  "website": null,
  "dietary_hint": [],
  "completeness": 6
 },
 {
  "name": "ภัตตาคารแหลมทอง",
  "name_en": null,
  "lat": 7.87971,
  "lng": 98.39417,
  "category": "Local Food",
  "source": "tat_restaurants",
  "source_type": "directory_listed",
  "phone": "076 224 349",
  "website": null,
  "dietary_hint": [],
  "completeness": 6
 },
 {
  "name": "ภูเก็ต อันดามัน แคมป์",
  "name_en": null,
  "lat": 7.873465,
  "lng": 98.348809,
  "category": "Local Food",
  "source": "tat_restaurants",
  "source_type": "directory_listed",
  "phone": null,
  "website": null,
  "dietary_hint": [],
  "completeness": 6
 },
 {
  "name": "ภูเก็ตซีฟู้ดบุฟเฟ่ต์",
  "name_en": null,
  "lat": 7.8487449,
  "lng": 98.3518821,
  "category": "Local Food",
  "source": "tat_restaurants",
  "source_type": "directory_listed",
  "phone": null,
  "website": null,
  "dietary_hint": [],
  "completeness": 6
 },
 {
  "name": "มะลิ อาหารพื้นเมืองภูเก็ต",
  "name_en": null,
  "lat": 7.86933,
  "lng": 98.357585,
  "category": "Local Food",
  "source": "tat_restaurants",
  "source_type": "directory_listed",
  "phone": null,
  "website": null,
  "dietary_hint": [],
  "completeness": 6
 },
 {
  "name": "มานี มี หม้อ (Manee Me More)",
  "name_en": null,
  "lat": 7.886417,
  "lng": 98.39194,
  "category": "Local Food",
  "source": "tat_restaurants",
  "source_type": "directory_listed",
  "phone": null,
  "website": null,
  "dietary_hint": [],
  "completeness": 6
 },
 {
  "name": "มุมอร่อย เจ๊น้อยป่าหล่าย",
  "name_en": null,
  "lat": 7.8408051,
  "lng": 98.3637341,
  "category": "Local Food",
  "source": "tat_restaurants",
  "source_type": "directory_listed",
  "phone": "076 390 193",
  "website": null,
  "dietary_hint": [
   "vegetarian"
  ],
  "completeness": 6
 },
 {
  "name": "ยกซด super เล้ง",
  "name_en": null,
  "lat": 7.880975,
  "lng": 98.371077,
  "category": "Local Food",
  "source": "tat_restaurants",
  "source_type": "directory_listed",
  "phone": null,
  "website": null,
  "dietary_hint": [],
  "completeness": 6
 },
 {
  "name": "รสนิยม ติ่มซำ (รสนิยม)",
  "name_en": null,
  "lat": 7.883961,
  "lng": 98.3831663,
  "category": "Local Food",
  "source": "tat_restaurants",
  "source_type": "directory_listed",
  "phone": null,
  "website": null,
  "dietary_hint": [],
  "completeness": 6
 },
 {
  "name": "ระฟ้าภูเก็ต ติ่มซำฮาลาล (Rafah Phuket)",
  "name_en": null,
  "lat": 7.90739,
  "lng": 98.402662,
  "category": "Local Food",
  "source": "tat_restaurants",
  "source_type": "directory_listed",
  "phone": null,
  "website": null,
  "dietary_hint": [
   "halal"
  ],
  "completeness": 6
 },
 {
  "name": "ริมทาง @ ฉลอง",
  "name_en": null,
  "lat": 7.8464029,
  "lng": 98.3386392,
  "category": "Local Food",
  "source": "tat_restaurants",
  "source_type": "directory_listed",
  "phone": "076 374 911",
  "website": null,
  "dietary_hint": [],
  "completeness": 6
 },
 {
  "name": "ร้านข้าวต้มถนนดีบุก",
  "name_en": null,
  "lat": 7.8835975,
  "lng": 98.397303,
  "category": "Local Food",
  "source": "tat_restaurants",
  "source_type": "directory_listed",
  "phone": "076 215 731",
  "website": null,
  "dietary_hint": [],
  "completeness": 6
 },
 {
  "name": "ร้านน้ำย้อย (NAM YOI RESTAURANT)",
  "name_en": null,
  "lat": 7.900787,
  "lng": 98.403145,
  "category": "Local Food",
  "source": "tat_restaurants",
  "source_type": "directory_listed",
  "phone": null,
  "website": null,
  "dietary_hint": [],
  "completeness": 6
 },
 {
  "name": "ร้านอยู่ดี ไข่กระทะ",
  "name_en": null,
  "lat": 7.880403,
  "lng": 98.385458,
  "category": "Local Food",
  "source": "tat_restaurants",
  "source_type": "directory_listed",
  "phone": null,
  "website": null,
  "dietary_hint": [],
  "completeness": 6
 },
 {
  "name": "ร้านอาจารย์",
  "name_en": null,
  "lat": 7.831276,
  "lng": 98.3396988,
  "category": "Local Food",
  "source": "tat_restaurants",
  "source_type": "directory_listed",
  "phone": null,
  "website": null,
  "dietary_hint": [],
  "completeness": 6
 },
 {
  "name": "ร้านอาหารกอบัว ภูเก็ต",
  "name_en": null,
  "lat": 7.90801,
  "lng": 98.4012287,
  "category": "Local Food",
  "source": "tat_restaurants",
  "source_type": "directory_listed",
  "phone": "076 217 234",
  "website": null,
  "dietary_hint": [],
  "completeness": 6
 },
 {
  "name": "ร้านอาหารกันเอง",
  "name_en": null,
  "lat": 7.820258,
  "lng": 98.344177,
  "category": "Local Food",
  "source": "tat_restaurants",
  "source_type": "directory_listed",
  "phone": null,
  "website": null,
  "dietary_hint": [],
  "completeness": 6
 },
 {
  "name": "ร้านอาหารเปลือย (เปลือย)",
  "name_en": null,
  "lat": 7.87917,
  "lng": 98.3979961,
  "category": "Local Food",
  "source": "tat_restaurants",
  "source_type": "directory_listed",
  "phone": null,
  "website": null,
  "dietary_hint": [],
  "completeness": 6
 },
 {
  "name": "ลาบนัว ภูเก็ต",
  "name_en": null,
  "lat": 7.8804765,
  "lng": 98.3729017,
  "category": "Local Food",
  "source": "tat_restaurants",
  "source_type": "directory_listed",
  "phone": null,
  "website": null,
  "dietary_hint": [],
  "completeness": 6
 },
 {
  "name": "วัฒนะพล (Wattanapol)",
  "name_en": null,
  "lat": 7.8840066,
  "lng": 98.3823174,
  "category": "Local Food",
  "source": "tat_restaurants",
  "source_type": "directory_listed",
  "phone": "076 234 567",
  "website": null,
  "dietary_hint": [],
  "completeness": 6
 },
 {
  "name": "วันจันทร์",
  "name_en": null,
  "lat": 7.885787,
  "lng": 98.390745,
  "category": "Local Food",
  "source": "tat_restaurants",
  "source_type": "directory_listed",
  "phone": "076 355 909",
  "website": null,
  "dietary_hint": [],
  "completeness": 6
 },
 {
  "name": "วัวไซต์ลาย Chillva Market",
  "name_en": null,
  "lat": 7.9071218,
  "lng": 98.3733868,
  "category": "Local Food",
  "source": "tat_restaurants",
  "source_type": "directory_listed",
  "phone": null,
  "website": null,
  "dietary_hint": [],
  "completeness": 6
 },
 {
  "name": "วิทยา Brew Specialty Coffee",
  "name_en": null,
  "lat": 7.899934,
  "lng": 98.381183,
  "category": "Café & Dessert",
  "source": "tat_restaurants",
  "source_type": "directory_listed",
  "phone": null,
  "website": null,
  "dietary_hint": [],
  "completeness": 6
 },
 {
  "name": "วิวคาเฟ่ ภูเก็ต (View Café Phuket)",
  "name_en": null,
  "lat": 7.8701979,
  "lng": 98.3299142,
  "category": "Café & Dessert",
  "source": "tat_restaurants",
  "source_type": "directory_listed",
  "phone": "081-451-4545",
  "website": null,
  "dietary_hint": [],
  "completeness": 6
 },
 {
  "name": "ศาลาลอยซีฟู้ด (SALALOY SEAFOOD)",
  "name_en": null,
  "lat": 7.774568,
  "lng": 98.325693,
  "category": "Local Food",
  "source": "tat_restaurants",
  "source_type": "directory_listed",
  "phone": "076613740 ",
  "website": null,
  "dietary_hint": [],
  "completeness": 6
 },
 {
  "name": "สถานีปลาเผา @ซิมจั่น",
  "name_en": null,
  "lat": 7.88468,
  "lng": 98.379622,
  "category": "Local Food",
  "source": "tat_restaurants",
  "source_type": "directory_listed",
  "phone": null,
  "website": null,
  "dietary_hint": [],
  "completeness": 6
 },
 {
  "name": "สยาม ซัปเปอร์คลับ",
  "name_en": null,
  "lat": 7.9948243,
  "lng": 98.3058585,
  "category": "Local Food",
  "source": "tat_restaurants",
  "source_type": "directory_listed",
  "phone": "076 270 936",
  "website": null,
  "dietary_hint": [],
  "completeness": 6
 },
 {
  "name": "สามกองน้ำเต้าหู้ ๒๕๓๘",
  "name_en": null,
  "lat": 7.9019956,
  "lng": 98.3791707,
  "category": "Local Food",
  "source": "tat_restaurants",
  "source_type": "directory_listed",
  "phone": null,
  "website": null,
  "dietary_hint": [],
  "completeness": 6
 },
 {
  "name": "สเต๊กแก้มบุ๋ม",
  "name_en": null,
  "lat": 7.8565968,
  "lng": 98.3776113,
  "category": "Local Food",
  "source": "tat_restaurants",
  "source_type": "directory_listed",
  "phone": null,
  "website": null,
  "dietary_hint": [],
  "completeness": 6
 },
 {
  "name": "ส้มตำ ยำ เผา (Somtum Yum Pao)",
  "name_en": null,
  "lat": 7.9119326,
  "lng": 98.2946867,
  "category": "Local Food",
  "source": "tat_restaurants",
  "source_type": "directory_listed",
  "phone": "076 609 406",
  "website": null,
  "dietary_hint": [],
  "completeness": 6
 },
 {
  "name": "ส้มตำพันล้าน (Som Tam Pun Lan)",
  "name_en": null,
  "lat": 7.902779,
  "lng": 98.307495,
  "category": "Local Food",
  "source": "tat_restaurants",
  "source_type": "directory_listed",
  "phone": null,
  "website": null,
  "dietary_hint": [],
  "completeness": 6
 },
 {
  "name": "หมอมูดง (Mor Mu Dong)",
  "name_en": null,
  "lat": 7.843089,
  "lng": 98.372023,
  "category": "Local Food",
  "source": "tat_restaurants",
  "source_type": "directory_listed",
  "phone": "076-282302 ",
  "website": null,
  "dietary_hint": [],
  "completeness": 6
 },
 {
  "name": "หมี่ โปเบี๋ยน (หมี่กะทู้)",
  "name_en": null,
  "lat": 7.912143,
  "lng": 98.3460134,
  "category": "Local Food",
  "source": "tat_restaurants",
  "source_type": "directory_listed",
  "phone": null,
  "website": null,
  "dietary_hint": [],
  "completeness": 6
 },
 {
  "name": "หมี่อ่าวเก (Mee Ao Kae Noodle)",
  "name_en": null,
  "lat": 7.876259,
  "lng": 98.38855,
  "category": "Local Food",
  "source": "tat_restaurants",
  "source_type": "directory_listed",
  "phone": "076 213 058",
  "website": null,
  "dietary_hint": [],
  "completeness": 6
 },
 {
  "name": "หมี่โกล้าน",
  "name_en": null,
  "lat": 7.8884630175,
  "lng": 98.3853685856,
  "category": "Local Food",
  "source": "tat_restaurants",
  "source_type": "directory_listed",
  "phone": null,
  "website": null,
  "dietary_hint": [],
  "completeness": 6
 },
 {
  "name": "หมูกรอบทองคำ",
  "name_en": null,
  "lat": 8.004218,
  "lng": 98.345106,
  "category": "Local Food",
  "source": "tat_restaurants",
  "source_type": "directory_listed",
  "phone": null,
  "website": null,
  "dietary_hint": [],
  "completeness": 6
 },
 {
  "name": "หมูกรอบภูเก็ต (จี้ฮอง)",
  "name_en": null,
  "lat": 7.885005,
  "lng": 98.379143,
  "category": "Local Food",
  "source": "tat_restaurants",
  "source_type": "directory_listed",
  "phone": "076 215 221",
  "website": null,
  "dietary_hint": [],
  "completeness": 6
 },
 {
  "name": "หม่าม้า กะตะบีช",
  "name_en": null,
  "lat": 7.8162556,
  "lng": 98.3007241,
  "category": "Local Food",
  "source": "tat_restaurants",
  "source_type": "directory_listed",
  "phone": null,
  "website": null,
  "dietary_hint": [],
  "completeness": 6
 },
 {
  "name": "หยกหลี่ (Yoklee)",
  "name_en": null,
  "lat": 7.834689,
  "lng": 98.337385,
  "category": "Local Food",
  "source": "tat_restaurants",
  "source_type": "directory_listed",
  "phone": "076381112",
  "website": null,
  "dietary_hint": [],
  "completeness": 6
 },
 {
  "name": "หวานละมุน",
  "name_en": null,
  "lat": 7.8809093,
  "lng": 98.3919871,
  "category": "Local Food",
  "source": "tat_restaurants",
  "source_type": "directory_listed",
  "phone": null,
  "website": null,
  "dietary_hint": [],
  "completeness": 6
 },
 {
  "name": "หอม หอม The Espresso Bar",
  "name_en": null,
  "lat": 7.8860059,
  "lng": 98.3895205,
  "category": "Café & Dessert",
  "source": "tat_restaurants",
  "source_type": "directory_listed",
  "phone": null,
  "website": null,
  "dietary_hint": [],
  "completeness": 6
 },
 {
  "name": "หอย 20++",
  "name_en": null,
  "lat": 7.880984,
  "lng": 98.367541,
  "category": "Local Food",
  "source": "tat_restaurants",
  "source_type": "directory_listed",
  "phone": null,
  "website": null,
  "dietary_hint": [],
  "completeness": 6
 },
 {
  "name": "หอยนางรมนายฟู (Hoy Nang Rom Nay Fu)",
  "name_en": null,
  "lat": 7.9088236,
  "lng": 98.3985906,
  "category": "Local Food",
  "source": "tat_restaurants",
  "source_type": "directory_listed",
  "phone": null,
  "website": null,
  "dietary_hint": [],
  "completeness": 6
 },