[
 {
  "osm_id": "node/265689795",
  "name": "แหลมพรหมเทพ",
  "name_en": "Phromthep Cape",
  "category": "Attraction / Experience",
  "lat": 7.7588917,
  "lon": 98.3033822,
  "cuisine": null,
  "opening_hours": null,
  "phone": null,
  "website": null,
  "addr": null,
  "raw_tags": {
   "tourism": "viewpoint"
  }
 },
 {
  "osm_id": "node/571499860",
  "name": "KFC",
  "name_en": "KFC",
  "category": "Local Food",
  "lat": 7.8249449,
  "lon": 98.3392301,
  "cuisine": "chicken",
  "opening_hours": null,
  "phone": "1150",
  "website": "https://www.kfc.co.th/",
  "addr": "เจ้าฟ้าตะวันตก",
  "raw_tags": {
   "amenity": "fast_food"
  }
 },
 {
  "osm_id": "node/571499896",
  "name": "Chalong Pier Restaurant",
  "name_en": null,
  "category": "Local Food",
  "lat": 7.821508,
  "lon": 98.3447484,
  "cuisine": null,
  "opening_hours": null,
  "phone": null,
  "website": null,
  "addr": null,
  "raw_tags": {
   "amenity": "restaurant"
  }
 },
 {
  "osm_id": "node/571502598",
  "name": "Bäckerei Bei Manni",
  "name_en": null,
  "category": "Café & Dessert",
  "lat": 7.8219235,
  "lon": 98.3415771,
  "cuisine": null,
  "opening_hours": null,
  "phone": null,
  "website": null,
  "addr": null,
  "raw_tags": {
   "shop": "bakery"
  }
 },
 {
  "osm_id": "node/571502607",
  "name": "Pizzeria",
  "name_en": null,
  "category": "Local Food",
  "lat": 7.8219873,
  "lon": 98.3414805,
  "cuisine": null,
  "opening_hours": null,
  "phone": null,
  "website": null,
  "addr": null,
  "raw_tags": {
   "amenity": "restaurant"
  }
 },
 {
  "osm_id": "node/573262404",
  "name": "Deutsche Bäckerei",
  "name_en": null,
  "category": "Café & Dessert",
  "lat": 7.8298378,
  "lon": 98.3441092,
  "cuisine": null,
  "opening_hours": null,
  "phone": null,
  "website": null,
  "addr": null,
  "raw_tags": {
   "shop": "bakery"
  }
 },
 {
  "osm_id": "node/573263225",
  "name": "coconutbar",
  "name_en": null,
  "category": "Bar / Nightlife",
  "lat": 7.8218278,
  "lon": 98.3416736,
  "cuisine": null,
  "opening_hours": null,
  "phone": null,
  "website": null,
  "addr": null,
  "raw_tags": {
   "amenity": "bar"
  }
 },
 {
  "osm_id": "node/573263226",
  "name": "anchor inn",
  "name_en": "Anchor Inn Restaurant",
  "category": "Local Food",
  "lat": 7.8220617,
  "lon": 98.3413625,
  "cuisine": "thai;breakfast;diner",
  "opening_hours": "Mo-Su 09:00-21:00",
  "phone": null,
  "website": null,
  "addr": null,
  "raw_tags": {
   "amenity": "restaurant"
  }
 },
 {
  "osm_id": "node/583467472",
  "name": "ganen",
  "name_en": null,
  "category": "Local Food",
  "lat": 7.8201819,
  "lon": 98.3443509,
  "cuisine": null,
  "opening_hours": null,
  "phone": null,
  "website": null,
  "addr": null,
  "raw_tags": {
   "amenity": "restaurant"
  }
 },
 {
  "osm_id": "node/583467536",
  "name": "beer bar",
  "name_en": null,
  "category": "Bar / Nightlife",
  "lat": 7.8202669,
  "lon": 98.3441503,
  "cuisine": null,
  "opening_hours": null,
  "phone": null,
  "website": null,
  "addr": null,
  "raw_tags": {
   "amenity": "bar"
  }
 },
 {
  "osm_id": "node/660134618",
  "name": "On the Beach Restaurant",
  "name_en": null,
  "category": "Local Food",
  "lat": 7.8975004,
  "lon": 98.296197,
  "cuisine": "thai",
  "opening_hours": null,
  "phone": null,
  "website": null,
  "addr": null,
  "raw_tags": {
   "amenity": "restaurant"
  }
 },
 {
  "osm_id": "node/660134619",
  "name": "Sabai Beach Restaurant",
  "name_en": null,
  "category": "Local Food",
  "lat": 7.897602,
  "lon": 98.2958997,
  "cuisine": "thai",
  "opening_hours": null,
  "phone": null,
  "website": null,
  "addr": null,
  "raw_tags": {
   "amenity": "restaurant"
  }
 },
 {
  "osm_id": "node/663334457",
  "name": "Mangmoon-Bar",
  "name_en": null,
  "category": "Bar / Nightlife",
  "lat": 7.8967668,
  "lon": 98.3089061,
  "cuisine": null,
  "opening_hours": null,
  "phone": null,
  "website": null,
  "addr": null,
  "raw_tags": {
   "amenity": "bar"
  }
 },
 {
  "osm_id": "node/663334526",
  "name": "Freedom Bar",
  "name_en": null,
  "category": "Bar / Nightlife",
  "lat": 7.922809,
  "lon": 98.2777509,
  "cuisine": null,
  "opening_hours": null,
  "phone": null,
  "website": null,
  "addr": null,
  "raw_tags": {
   "amenity": "bar"
  }
 },
 {
  "osm_id": "node/672352911",
  "name": "Eff & Gap Bar & Restaurant",
  "name_en": null,
  "category": "Local Food",
  "lat": 8.0612378,
  "lon": 98.2774675,
  "cuisine": "thai",
  "opening_hours": null,
  "phone": null,
  "website": null,
  "addr": null,
  "raw_tags": {
   "amenity": "restaurant"
  }
 },
 {
  "osm_id": "node/672352918",
  "name": "Naithon Massage - spot 2",
  "name_en": null,
  "category": "Massage & Spa / Wellness",
  "lat": 8.06081,
  "lon": 98.2776113,
  "cuisine": null,
  "opening_hours": null,
  "phone": null,
  "website": null,
  "addr": null,
  "raw_tags": {
   "shop": "massage"
  }
 },
 {
  "osm_id": "node/672352925",
  "name": "Seafood Phutawan",
  "name_en": null,
  "category": "Local Food",
  "lat": 8.0630285,
  "lon": 98.2780796,
  "cuisine": "thai;seafood",
  "opening_hours": null,
  "phone": null,
  "website": null,
  "addr": null,
  "raw_tags": {
   "amenity": "restaurant"
  }
 },
 {
  "osm_id": "node/672352927",
  "name": "Peter's Bar and Restaurant",
  "name_en": null,
  "category": "Local Food",
  "lat": 8.0619766,
  "lon": 98.2772689,
  "cuisine": "thai",
  "opening_hours": null,
  "phone": null,
  "website": null,
  "addr": null,
  "raw_tags": {
   "amenity": "restaurant"
  }
 },
 {
  "osm_id": "node/672352928",
  "name": "Blue sunset",
  "name_en": null,
  "category": "Local Food",
  "lat": 8.0615694,
  "lon": 98.2773507,
  "cuisine": "thai",
  "opening_hours": null,
  "phone": null,
  "website": null,
  "addr": null,
  "raw_tags": {
   "amenity": "restaurant"
  }
 },
 {
  "osm_id": "node/672352929",
  "name": "Naithon Massage - spot 1",
  "name_en": null,
  "category": "Massage & Spa / Wellness",
  "lat": 8.0617571,
  "lon": 98.2773087,
  "cuisine": null,
  "opening_hours": null,
  "phone": null,
  "website": null,
  "addr": null,
  "raw_tags": {
   "shop": "massage"
  }
 },
 {
  "osm_id": "node/672352932",
  "name": "Baan Sang Thong",
  "name_en": "Baan Sang Thong",
  "category": "Local Food",
  "lat": 8.0631332,
  "lon": 98.2784371,
  "cuisine": "thai",
  "opening_hours": null,
  "phone": null,
  "website": null,
  "addr": null,
  "raw_tags": {
   "amenity": "restaurant"
  }
 },
 {
  "osm_id": "node/672352934",
  "name": "Leelawadee Massage",
  "name_en": null,
  "category": "Massage & Spa / Wellness",
  "lat": 8.0629338,
  "lon": 98.2782558,
  "cuisine": null,
  "opening_hours": null,
  "phone": null,
  "website": null,
  "addr": null,
  "raw_tags": {
   "shop": "massage"
  }
 },
 {
  "osm_id": "node/672582341",
  "name": "Seaview Bar",
  "name_en": null,
  "category": "Bar / Nightlife",
  "lat": 8.0603867,
  "lon": 98.2778525,
  "cuisine": null,
  "opening_hours": null,
  "phone": null,
  "website": null,
  "addr": null,
  "raw_tags": {
   "amenity": "bar"
  }
 },
 {
  "osm_id": "node/672582345",
  "name": "Waree",
  "name_en": null,
  "category": "Massage & Spa / Wellness",
  "lat": 8.0598609,
  "lon": 98.2780072,
  "cuisine": null,
  "opening_hours": "9:00-22:00",
  "phone": null,
  "website": null,
  "addr": null,
  "raw_tags": {
   "shop": "massage"
  }
 },
 {
  "osm_id": "node/672589917",
  "name": "Wiwan Restaurant",
  "name_en": null,
  "category": "Local Food",
  "lat": 8.0594218,
  "lon": 98.2780742,
  "cuisine": "international",
  "opening_hours": null,
  "phone": null,
  "website": null,
  "addr": null,
  "raw_tags": {
   "amenity": "restaurant"
  }
 },
 {
  "osm_id": "node/672589918",
  "name": "Shameena",
  "name_en": null,
  "category": "Local Food",
  "lat": 8.0592202,
  "lon": 98.2781154,
  "cuisine": "international",
  "opening_hours": "18:00-",
  "phone": null,
  "website": null,
  "addr": null,
  "raw_tags": {
   "amenity": "restaurant"
  }
 },
 {
  "osm_id": "node/672597106",
  "name": "Bamboo",
  "name_en": null,
  "category": "Local Food",
  "lat": 8.058411,
  "lon": 98.2779865,
  "cuisine": "thai",
  "opening_hours": "15:00+",
  "phone": null,
  "website": null,
  "addr": null,
  "raw_tags": {
   "amenity": "restaurant"
  }
 },
 {
  "osm_id": "node/672597111",
  "name": "Beach House Restaurant",
  "name_en": null,
  "category": "Local Food",
  "lat": 8.0582757,
  "lon": 98.278002,
  "cuisine": "thai",
  "opening_hours": "15:00+",
  "phone": null,
  "website": null,
  "addr": null,
  "raw_tags": {
   "amenity": "restaurant"
  }
 },
 {
  "osm_id": "node/672597112",
  "name": "Pinnochio",
  "name_en": null,
  "category": "Local Food",
  "lat": 8.0584238,
  "lon": 98.2782315,
  "cuisine": "italian",
  "opening_hours": "15:00+",
  "phone": null,
  "website": null,
  "addr": null,
  "raw_tags": {
   "amenity": "restaurant"
  }
 },
 {
  "osm_id": "node/672597114",
  "name": "Coconut tree restaurant and bar",
  "name_en": null,
  "category": "Local Food",
  "lat": 8.0579337,
  "lon": 98.2782856,
  "cuisine": "thai",
  "opening_hours": "15:00+",
  "phone": null,
  "website": null,
  "addr": null,
  "raw_tags": {
   "amenity": "restaurant"
  }
 },
 {
  "osm_id": "node/672597115",
  "name": "Woody's Thai Massage",
  "name_en": null,
  "category": "Massage & Spa / Wellness",
  "lat": 8.0577014,
  "lon": 98.2782959,
  "cuisine": null,
  "opening_hours": null,
  "phone": null,
  "website": null,
  "addr": null,
  "raw_tags": {
   "shop": "massage"
  }
 },
 {
  "osm_id": "node/672597118",
  "name": "Naithon Beach Resort Restaurant",
  "name_en": null,
  "category": "Local Food",
  "lat": 8.0574206,
  "lon": 98.2783578,
  "cuisine": "thai",
  "opening_hours": "15:00+",
  "phone": null,
  "website": null,
  "addr": null,
  "raw_tags": {
   "amenity": "restaurant"
  }
 },
 {
  "osm_id": "node/672597122",
  "name": "Nai Thon Massage",
  "name_en": null,
  "category": "Massage & Spa / Wellness",
  "lat": 8.0587224,
  "lon": 98.2781928,
  "cuisine": null,
  "opening_hours": "10:00-23:00",
  "phone": null,
  "website": null,
  "addr": null,
  "raw_tags": {
   "shop": "massage"
  }
 },
 {
  "osm_id": "node/672597127",
  "name": "Mr. Jakob",
  "name_en": null,
  "category": "Bar / Nightlife",
  "lat": 8.0586586,
  "lon": 98.2782005,
  "cuisine": null,
  "opening_hours": null,
  "phone": null,
  "website": null,
  "addr": null,
  "raw_tags": {
   "amenity": "bar"
  }
 },
 {
  "osm_id": "node/672810509",
  "name": "Khwanta Sea Food",
  "name_en": null,
  "category": "Local Food",
  "lat": 8.0560831,
  "lon": 98.2784042,
  "cuisine": "thai",
  "opening_hours": null,
  "phone": null,
  "website": null,
  "addr": null,
  "raw_tags": {
   "amenity": "restaurant"
  }
 },
 {
  "osm_id": "node/672810510",
  "name": "Madagascar",
  "name_en": null,
  "category": "Bar / Nightlife",
  "lat": 8.0562005,
  "lon": 98.2783526,
  "cuisine": null,
  "opening_hours": null,
  "phone": null,
  "website": null,
  "addr": null,
  "raw_tags": {
   "amenity": "bar"
  }
 },
 {
  "osm_id": "node/672810511",
  "name": "Naithon Beach Club",
  "name_en": null,
  "category": "Local Food",
  "lat": 8.0563894,
  "lon": 98.2784712,
  "cuisine": "thai;international",
  "opening_hours": null,
  "phone": null,
  "website": null,
  "addr": null,
  "raw_tags": {
   "amenity": "restaurant"
  }
 },
 {
  "osm_id": "node/672810512",
  "name": "SL Massage",
  "name_en": null,
  "category": "Massage & Spa / Wellness",
  "lat": 8.0564889,
  "lon": 98.278448,
  "cuisine": null,
  "opening_hours": "8:00-10:00",
  "phone": null,
  "website": null,
  "addr": null,
  "raw_tags": {
   "shop": "massage"
  }
 },
 {
  "osm_id": "node/672810513",
  "name": "Tien Seng",
  "name_en": null,
  "category": "Local Food",
  "lat": 8.0565936,
  "lon": 98.27843,
  "cuisine": "thai",
  "opening_hours": null,
  "phone": null,
  "website": null,
  "addr": null,
  "raw_tags": {
   "amenity": "restaurant"
  }
 },
 {
  "osm_id": "node/685068770",
  "name": "Alpengrill",
  "name_en": null,
  "category": "Local Food",
  "lat": 7.8949238,
  "lon": 98.2961246,
  "cuisine": "thai,swiss",
  "opening_hours": null,
  "phone": null,
  "website": null,
  "addr": null,
  "raw_tags": {
   "amenity": "restaurant"
  }
 },
 {
  "osm_id": "node/685068773",
  "name": "Grillhütte",
  "name_en": null,
  "category": "Local Food",
  "lat": 7.8949473,
  "lon": 98.2962564,
  "cuisine": "thai;german",
  "opening_hours": null,
  "phone": null,
  "website": null,
  "addr": null,
  "raw_tags": {
   "amenity": "restaurant"
  }
 },
 {
  "osm_id": "node/701508449",
  "name": "Garden Cottage",
  "name_en": null,
  "category": "Local Food",
  "lat": 8.0910912,
  "lon": 98.3051733,
  "cuisine": null,
  "opening_hours": null,
  "phone": "+66-76-327293",
  "website": null,
  "addr": null,
  "raw_tags": {
   "amenity": "restaurant"
  }
 },
 {
  "osm_id": "node/701552287",
  "name": "Mango Saloon",
  "name_en": null,
  "category": "Local Food",
  "lat": 8.0972902,
  "lon": 98.3062165,
  "cuisine": null,
  "opening_hours": null,
  "phone": null,
  "website": null,
  "addr": null,
  "raw_tags": {
   "amenity": "restaurant"
  }
 },
 {
  "osm_id": "node/701603366",
  "name": "Gobenz Phuket",
  "name_en": "Go Benz Rice Porridge Phuket",
  "category": "Local Food",
  "lat": 7.8847086,
  "lon": 98.3824761,
  "cuisine": "thai",
  "opening_hours": "Mo-Su 17:30-00:30",
  "phone": "+66840607799",
  "website": "gobenzphuket",
  "addr": null,
  "raw_tags": {
   "amenity": "restaurant"
  }
 },
 {
  "osm_id": "node/702232618",
  "name": "ASquare",
  "name_en": null,
  "category": "Local Food",
  "lat": 7.8834917,
  "lon": 98.388532,
  "cuisine": null,
  "opening_hours": null,
  "phone": null,
  "website": null,
  "addr": null,
  "raw_tags": {
   "amenity": "restaurant"
  }
 },
 {
  "osm_id": "node/785748432",
  "name": "Baantong BBQ",
  "name_en": null,
  "category": "Local Food",
  "lat": 7.9016689,
  "lon": 98.3100774,
  "cuisine": null,
  "opening_hours": null,
  "phone": null,
  "website": null,
  "addr": null,
  "raw_tags": {
   "amenity": "restaurant"
  }
 },
 {
  "osm_id": "node/792596131",
  "name": "The Corner",
  "name_en": null,
  "category": "Local Food",
  "lat": 7.8872497,
  "lon": 98.3029843,
  "cuisine": null,
  "opening_hours": "Mo-Su 09:00-22:30",
  "phone": null,
  "website": null,
  "addr": null,
  "raw_tags": {
   "amenity": "restaurant"
  }
 },
 {
  "osm_id": "node/792605238",
  "name": "Jips Guesthouse",
  "name_en": null,
  "category": "Local Food",
  "lat": 7.8875792,
  "lon": 98.3027322,
  "cuisine": "danish;thai",
  "opening_hours": null,
  "phone": null,
  "website": null,
  "addr": null,
  "raw_tags": {
   "amenity": "restaurant"
  }
 },
 {
  "osm_id": "node/792876614",
  "name": "Acqua",
  "name_en": null,
  "category": "Local Food",
  "lat": 7.9166191,
  "lon": 98.291105,
  "cuisine": "italian",
  "opening_hours": null,
  "phone": null,
  "website": null,
  "addr": null,
  "raw_tags": {
   "amenity": "restaurant"
  }
 },
 {
  "osm_id": "node/793091682",
  "name": "Tropica Restaurant",
  "name_en": null,
  "category": "Local Food",
  "lat": 7.8938163,
  "lon": 98.2953184,
  "cuisine": null,
  "opening_hours": null,
  "phone": null,
  "website": null,
  "addr": null,
  "raw_tags": {
   "amenity": "restaurant"
  }
 },
 {
  "osm_id": "node/793092027",
  "name": "Patong Seafood",
  "name_en": null,
  "category": "Local Food",
  "lat": 7.8935187,
  "lon": 98.2951736,
  "cuisine": null,
  "opening_hours": null,
  "phone": null,
  "website": null,
  "addr": null,
  "raw_tags": {
   "amenity": "restaurant"
  }
 },
 {
  "osm_id": "node/793151165",
  "name": "Pizzaro",
  "name_en": null,
  "category": "Local Food",
  "lat": 7.8928173,
  "lon": 98.2948088,
  "cuisine": "italian",
  "opening_hours": null,
  "phone": null,
  "website": null,
  "addr": null,
  "raw_tags": {
   "amenity": "restaurant"
  }
 },
 {
  "osm_id": "node/793151230",
  "name": "Baitong",
  "name_en": null,
  "category": "Local Food",
  "lat": 7.8927004,
  "lon": 98.2947444,
  "cuisine": null,
  "opening_hours": null,
  "phone": null,
  "website": null,
  "addr": null,
  "raw_tags": {
   "amenity": "restaurant"
  }
 },
 {
  "osm_id": "node/793151269",
  "name": "Papaya",
  "name_en": null,
  "category": "Local Food",
  "lat": 7.8925888,
  "lon": 98.2946908,
  "cuisine": "thai",
  "opening_hours": null,
  "phone": null,
  "website": null,
  "addr": null,
  "raw_tags": {
   "amenity": "restaurant"
  }
 },
 {
  "osm_id": "node/793151414",
  "name": "Harrys Steakhouse & Pub",
  "name_en": null,
  "category": "Local Food",
  "lat": 7.8920336,
  "lon": 98.2945768,
  "cuisine": null,
  "opening_hours": null,
  "phone": null,
  "website": null,
  "addr": null,
  "raw_tags": {
   "amenity": "restaurant"
  }
 },
 {
  "osm_id": "node/793151497",
  "name": "Mamma Mia",
  "name_en": null,
  "category": "Local Food",
  "lat": 7.8919924,
  "lon": 98.2946881,
  "cuisine": null,
  "opening_hours": null,
  "phone": null,
  "website": null,
  "addr": null,
  "raw_tags": {
   "amenity": "restaurant"
  }
 },
 {
  "osm_id": "node/793197090",
  "name": "Kwality",
  "name_en": null,
  "category": "Local Food",
  "lat": 7.8916708,
  "lon": 98.2941063,
  "cuisine": "indian",
  "opening_hours": null,
  "phone": null,
  "website": null,
  "addr": null,
  "raw_tags": {
   "amenity": "restaurant"
  }
 },
 {
  "osm_id": "node/793874519",
  "name": "Karlsson's",
  "name_en": null,
  "category": "Local Food",
  "lat": 7.8915726,
  "lon": 98.2953814,
  "cuisine": null,
  "opening_hours": null,
  "phone": null,
  "website": null,
  "addr": null,
  "raw_tags": {
   "amenity": "restaurant"
  }
 },
 {
  "osm_id": "node/795685944",
  "name": "Hemingway's",
  "name_en": null,
  "category": "Local Food",
  "lat": 7.8908987,
  "lon": 98.3019316,
  "cuisine": null,
  "opening_hours": null,
  "phone": null,
  "website": null,
  "addr": null,
  "raw_tags": {
   "amenity": "restaurant"
  }
 },
 {
  "osm_id": "node/797967507",
  "name": "K & K restaurant",
  "name_en": null,
  "category": "Local Food",
  "lat": 7.8931989,
  "lon": 98.2963941,
  "cuisine": "thai",
  "opening_hours": null,
  "phone": "0945789118",
  "website": null,
  "addr": null,
  "raw_tags": {
   "amenity": "restaurant"
  }
 },
 {
  "osm_id": "node/800368509",
  "name": "McDonald's",
  "name_en": "McDonald's",
  "category": "Local Food",
  "lat": 7.8908805,
  "lon": 98.3009295,
  "cuisine": "burger",
  "opening_hours": null,
  "phone": "1711",
  "website": "https://www.mcthai.co.th/",
  "addr": null,
  "raw_tags": {
   "amenity": "fast_food"
  }
 },
 {
  "osm_id": "node/800425598",
  "name": "Jeffer",
  "name_en": null,
  "category": "Local Food",
  "lat": 7.8903971,
  "lon": 98.3006196,
  "cuisine": null,
  "opening_hours": null,
  "phone": null,
  "website": null,
  "addr": null,
  "raw_tags": {
   "amenity": "restaurant"
  }
 },
 {
  "osm_id": "node/800427519",
  "name": "Burger King",
  "name_en": null,
  "category": "Local Food",
  "lat": 7.8922155,
  "lon": 98.2983652,
  "cuisine": "burger",
  "opening_hours": "24/7",
  "phone": null,
  "website": "https://www.burgerking.co.th/",
  "addr": null,
  "raw_tags": {
   "amenity": "fast_food"
  }
 },
 {
  "osm_id": "node/803993094",
  "name": "Cafe del Mar",
  "name_en": null,
  "category": "Local Food",
  "lat": 7.887316,
  "lon": 98.2915406,
  "cuisine": null,
  "opening_hours": null,
  "phone": null,
  "website": null,
  "addr": null,
  "raw_tags": {
   "amenity": "restaurant"
  }
 },
 {
  "osm_id": "node/803994091",
  "name": "Seaside Terrace",
  "name_en": null,
  "category": "Local Food",
  "lat": 7.8876219,
  "lon": 98.2917678,
  "cuisine": null,
  "opening_hours": null,
  "phone": null,
  "website": null,
  "addr": null,
  "raw_tags": {
   "amenity": "restaurant"
  }
 },
 {
  "osm_id": "node/804002240",
  "name": "Coffee World",
  "name_en": null,
  "category": "Café & Dessert",
  "lat": 7.8878531,
  "lon": 98.2921164,
  "cuisine": null,
  "opening_hours": null,
  "phone": null,
  "website": null,
  "addr": null,
  "raw_tags": {
   "amenity": "cafe"
  }
 },
 {
  "osm_id": "node/804005038",
  "name": "Ali Baba",
  "name_en": null,
  "category": "Local Food",
  "lat": 7.8881595,
  "lon": 98.2921992,
  "cuisine": "indian",
  "opening_hours": null,
  "phone": null,
  "website": null,
  "addr": null,
  "raw_tags": {
   "amenity": "restaurant"
  }
 },
 {
  "osm_id": "node/804011073",
  "name": "Terrazzo",
  "name_en": null,
  "category": "Local Food",
  "lat": 7.8884593,
  "lon": 98.2924082,
  "cuisine": "italian",
  "opening_hours": null,
  "phone": null,
  "website": null,
  "addr": null,
  "raw_tags": {
   "amenity": "restaurant"
  }
 },
 {
  "osm_id": "node/804017541",
  "name": "Sam's Steaks & Grill",
  "name_en": null,
  "category": "Local Food",
  "lat": 7.8886787,
  "lon": 98.2925519,
  "cuisine": null,
  "opening_hours": null,
  "phone": null,
  "website": null,
  "addr": null,
  "raw_tags": {
   "amenity": "restaurant"
  }
 },
 {
  "osm_id": "node/804017634",
  "name": "Baluchi",
  "name_en": null,
  "category": "Local Food",
  "lat": 7.8888943,
  "lon": 98.2926626,
  "cuisine": "indian",
  "opening_hours": null,
  "phone": null,
  "website": null,
  "addr": null,
  "raw_tags": {
   "amenity": "restaurant"
  }
 },
 {
  "osm_id": "node/804017688",
  "name": "Borsalino",
  "name_en": null,
  "category": "Local Food",
  "lat": 7.8888769,
  "lon": 98.2927373,
  "cuisine": "italian",
  "opening_hours": null,
  "phone": null,
  "website": null,
  "addr": null,
  "raw_tags": {
   "amenity": "restaurant"
  }
 },
 {
  "osm_id": "node/804033349",
  "name": "The Palm",
  "name_en": null,
  "category": "Local Food",
  "lat": 7.8895595,
  "lon": 98.292971,
  "cuisine": null,
  "opening_hours": null,
  "phone": null,
  "website": null,
  "addr": null,
  "raw_tags": {
   "amenity": "restaurant"
  }
 },
 {
  "osm_id": "node/804033386",
  "name": "Burger King",
  "name_en": null,
  "category": "Local Food",
  "lat": 7.8896304,
  "lon": 98.2930049,
  "cuisine": "burger",
  "opening_hours": null,
  "phone": null,
  "website": "https://www.burgerking.co.th/",
  "addr": null,
  "raw_tags": {
   "amenity": "fast_food"
  }
 },
 {
  "osm_id": "node/807811560",
  "name": "Grillhouse",
  "name_en": null,
  "category": "Local Food",
  "lat": 7.900991,
  "lon": 98.2998945,
  "cuisine": "danish,thai",
  "opening_hours": null,
  "phone": null,
  "website": null,
  "addr": null,
  "raw_tags": {
   "amenity": "restaurant"
  }
 },
 {
  "osm_id": "node/807831107",
  "name": "Byd",
  "name_en": null,
  "category": "Local Food",
  "lat": 7.9007519,
  "lon": 98.2997979,
  "cuisine": null,
  "opening_hours": null,
  "phone": null,
  "website": null,
  "addr": null,
  "raw_tags": {
   "amenity": "restaurant"
  }
 },
 {
  "osm_id": "node/808279800",
  "name": "Subway",
  "name_en": "Subway",
  "category": "Local Food",
  "lat": 7.897,
  "lon": 98.2998002,
  "cuisine": "sandwich",
  "opening_hours": null,
  "phone": null,
  "website": "https://www.subway.co.th/",
  "addr": null,
  "raw_tags": {
   "amenity": "fast_food"
  }
 },
 {
  "osm_id": "node/975625692",
  "name": "Coconut",
  "name_en": null,
  "category": "Local Food",
  "lat": 8.172519,
  "lon": 98.3370417,
  "cuisine": null,
  "opening_hours": null,
  "phone": null,
  "website": null,
  "addr": null,
  "raw_tags": {
   "amenity": "restaurant"
  }
 },
 {
  "osm_id": "node/1034807295",
  "name": "Reggae Bar",
  "name_en": null,
  "category": "Bar / Nightlife",
  "lat": 8.0147336,
  "lon": 98.2918024,
  "cuisine": null,
  "opening_hours": null,
  "phone": null,
  "website": null,
  "addr": null,
  "raw_tags": {
   "amenity": "bar"
  }
 },
 {
  "osm_id": "node/1036882374",
  "name": "น้ำตก",
  "name_en": "Ton Sai Waterfall",
  "category": "Attraction / Experience",
  "lat": 8.0281835,
  "lon": 98.3653337,
  "cuisine": null,
  "opening_hours": null,
  "phone": null,
  "website": null,
  "addr": null,
  "raw_tags": {
   "tourism": "attraction"
  }
 },
 {
  "osm_id": "node/1059034625",
  "name": "Pimwilai",
  "name_en": null,
  "category": "Local Food",
  "lat": 7.8255732,
  "lon": 98.297336,
  "cuisine": null,
  "opening_hours": null,
  "phone": null,
  "website": null,
  "addr": null,
  "raw_tags": {
   "amenity": "restaurant"
  }
 },
 {
  "osm_id": "node/1257584735",
  "name": "Kanchana Food Court",
  "name_en": null,
  "category": "Local Food",
  "lat": 7.8864215,
  "lon": 98.3023631,
  "cuisine": "thai",
  "opening_hours": null,
  "phone": null,
  "website": null,
  "addr": null,
  "raw_tags": {
   "amenity": "restaurant"
  }
 },
 {
  "osm_id": "node/1283925370",
  "name": "McDonald's",
  "name_en": "McDonald's",
  "category": "Local Food",
  "lat": 7.8939456,
  "lon": 98.2958168,
  "cuisine": "burger",
  "opening_hours": "24/7",
  "phone": "1711",
  "website": "https://www.mcthai.co.th/",
  "addr": null,
  "raw_tags": {
   "amenity": "fast_food"
  }
 },
 {
  "osm_id": "node/1283929767",
  "name": "McDonald's",
  "name_en": "McDonald's",
  "category": "Local Food",
  "lat": 7.8911317,
  "lon": 98.299113,
  "cuisine": "burger",
  "opening_hours": null,
  "phone": "1711",
  "website": "https://www.mcthai.co.th/",
  "addr": null,
  "raw_tags": {
   "amenity": "fast_food"
  }
 },
 {
  "osm_id": "node/1284444931",
  "name": "Banzaan Fresh Market (Night)",
  "name_en": "Banzaan Night Market",
  "category": "Local Product / Market",
  "lat": 7.8913509,
  "lon": 98.3014978,
  "cuisine": null,
  "opening_hours": "Mo-Su 18:00-00:00",
  "phone": null,
  "website": null,
  "addr": null,
  "raw_tags": {
   "amenity": "marketplace",
   "tourism": "attraction"
  }
 },
 {
  "osm_id": "node/1305066318",
  "name": "Da Mario",
  "name_en": null,
  "category": "Local Food",
  "lat": 7.8255593,
  "lon": 98.2965131,
  "cuisine": null,
  "opening_hours": null,
  "phone": null,
  "website": null,
  "addr": null,
  "raw_tags": {
   "amenity": "restaurant"
  }
 },
 {
  "osm_id": "node/1319826677",
  "name": "Kan Eang",
  "name_en": "Kan Eang Seafood",
  "category": "Local Food",
  "lat": 7.8199006,
  "lon": 98.3444166,
  "cuisine": null,
  "opening_hours": null,
  "phone": null,
  "website": null,
  "addr": "44/1 Moo 5 Viset road",
  "raw_tags": {
   "amenity": "restaurant"
  }
 },
 {
  "osm_id": "node/1325230420",
  "name": "Макарона",
  "name_en": null,
  "category": "Local Food",
  "lat": 8.059453,
  "lon": 98.277916,
  "cuisine": "italian",
  "opening_hours": null,
  "phone": null,
  "website": null,
  "addr": null,
  "raw_tags": {
   "amenity": "restaurant"
  }
 },
 {
  "osm_id": "node/1329812002",
  "name": "Dibuk Restaurant",
  "name_en": null,
  "category": "Local Food",
  "lat": 7.8863035,
  "lon": 98.3866252,
  "cuisine": "french;thai",
  "opening_hours": "mo-su 13:00-22:30",
  "phone": null,
  "website": "https://www.flickr.com/photos/eustaquio/3149575530/",
  "addr": "69 Dibuk road Phuket",
  "raw_tags": {
   "amenity": "restaurant"
  }
 },
 {
  "osm_id": "node/1348961567",
  "name": "La Gaetana",
  "name_en": null,
  "category": "Local Food",
  "lat": 7.8767454,
  "lon": 98.3935153,
  "cuisine": "italian",
  "opening_hours": null,
  "phone": "+6676250523",
  "website": "https://www.phuket.com/magazine/la-gaetana.htm",
  "addr": "352 Phuket Road",
  "raw_tags": {
   "amenity": "restaurant"
  }
 },
 {
  "osm_id": "node/1356101060",
  "name": "Chang Noi Restaurant",
  "name_en": null,
  "category": "Local Food",
  "lat": 7.8479813,
  "lon": 98.2964723,
  "cuisine": "international",
  "opening_hours": null,
  "phone": null,
  "website": null,
  "addr": null,
  "raw_tags": {
   "amenity": "restaurant"
  }
 },
 {
  "osm_id": "node/1372185345",
  "name": "Capannina",
  "name_en": null,
  "category": "Local Food",
  "lat": 7.8166846,
  "lon": 98.3011527,
  "cuisine": "italian",
  "opening_hours": null,
  "phone": null,
  "website": "http://www.capannina-phuket.com/en/restaurant.html",
  "addr": null,
  "raw_tags": {
   "amenity": "restaurant"
  }
 },
 {
  "osm_id": "node/1393542642",
  "name": "Sunset Terracec & Lounge",
  "name_en": null,
  "category": "Local Food",
  "lat": 7.8289305,
  "lon": 98.3025201,
  "cuisine": "thai",
  "opening_hours": "Mo-Su 14:30-23:30",
  "phone": "+6676333102",
  "website": "https://www.phuket-boomerang.com/",
  "addr": "Patak Road Soi 10 Kata",
  "raw_tags": {
   "amenity": "restaurant"
  }
 },
 {
  "osm_id": "node/1408226061",
  "name": "Why Not Bar",
  "name_en": null,
  "category": "Bar / Nightlife",
  "lat": 7.774422,
  "lon": 98.3254481,
  "cuisine": null,
  "opening_hours": null,
  "phone": null,
  "website": null,
  "addr": null,
  "raw_tags": {
   "amenity": "bar"
  }
 },
 {
  "osm_id": "node/1415685604",
  "name": "Lock Tien",
  "name_en": null,
  "category": "Local Food",
  "lat": 7.886194,
  "lon": 98.387536,
  "cuisine": null,
  "opening_hours": "06:30-17:00; Tu off",
  "phone": "+66873873803",
  "website": null,
  "addr": "40 Debuk Rd.",
  "raw_tags": {
   "amenity": "food_court"
  }
 },
 {
  "osm_id": "node/1415783491",
  "name": "เย็นเตาโฟ จี้ลี่",
  "name_en": null,
  "category": "Local Food",
  "lat": 7.886553,
  "lon": 98.385896,
  "cuisine": null,
  "opening_hours": "Mo-Sa 08:00-18:30; Su off",
  "phone": null,
  "website": null,
  "addr": null,
  "raw_tags": {
   "amenity": "restaurant"
  }
 },
 {
  "osm_id": "node/1415789217",
  "name": "ข้าวแกง จี้จู้",
  "name_en": null,
  "category": "Local Food",
  "lat": 7.897921,
  "lon": 98.362288,
  "cuisine": null,
  "opening_hours": "6:30 ; 11: 00 น  หยุดวัน จันทร์",
  "phone": null,
  "website": null,
  "addr": "ปากทางเข้าซอย ปุ่นเถ้าก้อง กระทู้",
  "raw_tags": {
   "amenity": "restaurant"
  }
 },
 {
  "osm_id": "node/1432553302",
  "name": "Tiffany Restaurant and Coffee Shop",
  "name_en": null,
  "category": "Local Food",
  "lat": 7.7917578,
  "lon": 98.3303823,
  "cuisine": null,
  "opening_hours": null,
  "phone": null,
  "website": null,
  "addr": null,
  "raw_tags": {
   "amenity": "restaurant"
  }
 },
 {
  "osm_id": "node/1483469257",
  "name": "Paradise Beach",
  "name_en": null,
  "category": "Local Food",
  "lat": 7.8907278,
  "lon": 98.265274,
  "cuisine": null,
  "opening_hours": null,
  "phone": null,
  "website": null,
  "addr": null,
  "raw_tags": {
   "amenity": "restaurant"
  }
 },
 {
  "osm_id": "node/1487434783",
  "name": "Hard Rock Cafe",
  "name_en": null,
  "category": "Local Food",
  "lat": 7.8870766,
  "lon": 98.294356,
  "cuisine": "american",
  "opening_hours": "Su-Th 11:00-01:00; Fr-Sa 11:00-02:00",
  "phone": "+66-76-366-381",
  "website": "https://www.hardrock.com/locations/cafes3/cafe.aspx?LocationID=521&MIBEnumID=3",
  "addr": null,
  "raw_tags": {
   "amenity": "restaurant"
  }
 },
 {
  "osm_id": "node/1562225024",
  "name": "Rawai Seafood Market",
  "name_en": "Rawai Seafood Market",
  "category": "Local Food",
  "lat": 7.7757205,
  "lon": 98.3287994,
  "cuisine": "thai",
  "opening_hours": null,
  "phone": null,
  "website": null,
  "addr": null,
  "raw_tags": {
   "amenity": "restaurant"
  }
 },
 {
  "osm_id": "node/1562239992",
  "name": "Karon View Point",
  "name_en": null,
  "category": "Attraction / Experience",
  "lat": 7.7972523,
  "lon": 98.3021839,
  "cuisine": null,
  "opening_hours": null,
  "phone": null,
  "website": null,
  "addr": null,
  "raw_tags": {
   "tourism": "viewpoint"
  }
 },
 {
  "osm_id": "node/1567933750",
  "name": "Seaview",
  "name_en": null,
  "category": "Local Food",
  "lat": 7.9119652,
  "lon": 98.2948186,
  "cuisine": null,
  "opening_hours": null,
  "phone": null,
  "website": null,
  "addr": null,
  "raw_tags": {
   "amenity": "restaurant"
  }
 },
 {
  "osm_id": "node/1567933763",
  "name": "White Box",
  "name_en": null,
  "category": "Local Food",
  "lat": 7.9151884,
  "lon": 98.2923889,
  "cuisine": null,
  "opening_hours": null,
  "phone": null,
  "website": null,
  "addr": null,
  "raw_tags": {
   "amenity": "restaurant"
  }
 },
 {
  "osm_id": "node/1597528224",
  "name": "แหลมพรหมเทพ",
  "name_en": "Sunset viewpoint from Phromthep Cape",
  "category": "Attraction / Experience",
  "lat": 7.7618922,
  "lon": 98.3053581,
  "cuisine": null,
  "opening_hours": null,
  "phone": null,
  "website": null,
  "addr": null,
  "raw_tags": {
   "tourism": "viewpoint"
  }
 },
 {
  "osm_id": "node/1597540963",
  "name": "ร้านาหารแหลมพรหมเทพภูเก็ต",
  "name_en": null,
  "category": "Local Food",
  "lat": 7.7623221,
  "lon": 98.3062766,
  "cuisine": "thai",
  "opening_hours": null,
  "phone": null,
  "website": null,
  "addr": null,
  "raw_tags": {
   "amenity": "restaurant"
  }
 },
 {
  "osm_id": "node/1631098889",
  "name": "Aon 999 Restaurant",
  "name_en": null,
  "category": "Local Food",
  "lat": 7.8983642,
  "lon": 98.2965647,
  "cuisine": null,
  "opening_hours": null,
  "phone": null,
  "website": null,
  "addr": null,
  "raw_tags": {
   "amenity": "restaurant"
  }
 },
 {
  "osm_id": "node/1638840115",
  "name": "Paulaner",
  "name_en": null,
  "category": "Local Food",
  "lat": 7.8893407,
  "lon": 98.2947479,
  "cuisine": "thai;german",
  "opening_hours": null,
  "phone": null,
  "website": null,
  "addr": null,
  "raw_tags": {
   "amenity": "restaurant"
  }
 },
 {
  "osm_id": "node/1676840439",
  "name": "Pool Bar BVR",
  "name_en": null,
  "category": "Bar / Nightlife",
  "lat": 7.8290189,
  "lon": 98.3024907,
  "cuisine": null,
  "opening_hours": null,
  "phone": null,
  "website": "https://www.phuket-boomerang.com/",
  "addr": "Patak road Soi 10 Kata",
  "raw_tags": {
   "amenity": "bar"
  }
 },
 {
  "osm_id": "node/1676843391",
  "name": "Sunset Terrace & Lounge",
  "name_en": null,
  "category": "Local Food",
  "lat": 7.8288748,
  "lon": 98.3026335,
  "cuisine": "thai",
  "opening_hours": "14:30-23:30",
  "phone": "+66 76 333 102",
  "website": "https://www.phuket-katabeach.com/",
  "addr": "Patak soi 10 Kata",
  "raw_tags": {
   "amenity": "restaurant"
  }
 },
 {
  "osm_id": "node/1760859846",
  "name": "The Grapevine",
  "name_en": null,
  "category": "Local Food",
  "lat": 8.0077158,
  "lon": 98.3150655,
  "cuisine": null,
  "opening_hours": null,
  "phone": null,
  "website": null,
  "addr": null,
  "raw_tags": {
   "amenity": "restaurant"
  }
 },
 {
  "osm_id": "node/1788328140",
  "name": "Krua Roi Rod",
  "name_en": null,
  "category": "Local Food",
  "lat": 7.7674182,
  "lon": 98.3067416,
  "cuisine": null,
  "opening_hours": null,
  "phone": null,
  "website": null,
  "addr": null,
  "raw_tags": {
   "amenity": "restaurant"
  }
 },
 {
  "osm_id": "node/1868627830",
  "name": "Bar Funk",
  "name_en": null,
  "category": "Bar / Nightlife",
  "lat": 7.8937575,
  "lon": 98.2963487,
  "cuisine": null,
  "opening_hours": null,
  "phone": null,
  "website": null,
  "addr": null,
  "raw_tags": {
   "amenity": "bar"
  }
 },
 {
  "osm_id": "node/1868629232",
  "name": "Bernies Bistro Bar",
  "name_en": null,
  "category": "Local Food",
  "lat": 7.8527623,
  "lon": 98.2945296,
  "cuisine": "thai",
  "opening_hours": null,
  "phone": null,
  "website": null,
  "addr": null,
  "raw_tags": {
   "amenity": "restaurant"
  }
 },
 {
  "osm_id": "node/1957082023",
  "name": "จุดชมวิวเขาขาด",
  "name_en": "Kaokard Viewpoint Tower",
  "category": "Attraction / Experience",
  "lat": 7.8346837,
  "lon": 98.3835499,
  "cuisine": null,
  "opening_hours": null,
  "phone": null,
  "website": null,
  "addr": null,
  "raw_tags": {
   "tourism": "viewpoint"
  }
 },
 {
  "osm_id": "node/1991937541",
  "name": "baan rim pa",
  "name_en": "baan rim pa",
  "category": "Local Food",
  "lat": 7.9073562,
  "lon": 98.2966791,
  "cuisine": null,
  "opening_hours": null,
  "phone": null,
  "website": null,
  "addr": null,
  "raw_tags": {
   "amenity": "restaurant"
  }
 },
 {
  "osm_id": "node/1991937544",
  "name": "Baan Kalim",
  "name_en": null,
  "category": "Local Food",
  "lat": 7.906445,
  "lon": 98.2972397,
  "cuisine": null,
  "opening_hours": null,
  "phone": null,
  "website": null,
  "addr": null,
  "raw_tags": {
   "amenity": "restaurant"
  }
 },
 {
  "osm_id": "node/2036283002",
  "name": "Pink Paradise",
  "name_en": null,
  "category": "Bar / Nightlife",
  "lat": 7.8936169,
  "lon": 98.2966631,
  "cuisine": null,
  "opening_hours": null,
  "phone": null,
  "website": null,
  "addr": null,
  "raw_tags": {
   "amenity": "bar"
  }
 },
 {
  "osm_id": "node/2036283003",
  "name": "Shipwreck",
  "name_en": null,
  "category": "Bar / Nightlife",
  "lat": 7.8938256,
  "lon": 98.2957069,
  "cuisine": null,
  "opening_hours": null,
  "phone": null,
  "website": null,
  "addr": null,
  "raw_tags": {
   "amenity": "bar"
  }
 },
 {
  "osm_id": "node/2036283004",
  "name": "The Black Horse",
  "name_en": null,
  "category": "Bar / Nightlife",
  "lat": 7.8935916,
  "lon": 98.296362,
  "cuisine": null,
  "opening_hours": null,
  "phone": null,
  "website": null,
  "addr": null,
  "raw_tags": {
   "amenity": "bar"
  }
 },
 {
  "osm_id": "node/2053202586",
  "name": "kais restaurant",
  "name_en": null,
  "category": "Bar / Nightlife",
  "lat": 7.856771,
  "lon": 98.29265,
  "cuisine": null,
  "opening_hours": null,
  "phone": null,
  "website": null,
  "addr": null,
  "raw_tags": {
   "amenity": "bar"
  }
 },
 {
  "osm_id": "node/2082853932",
  "name": "Black Canyon Coffee",
  "name_en": null,
  "category": "Café & Dessert",
  "lat": 7.8155355,
  "lon": 98.300322,
  "cuisine": null,
  "opening_hours": null,
  "phone": null,
  "website": null,
  "addr": null,
  "raw_tags": {
   "amenity": "cafe"
  }
 },
 {
  "osm_id": "node/2082853966",
  "name": "Orchid Restaurant",
  "name_en": null,
  "category": "Local Food",
  "lat": 7.815132,
  "lon": 98.300375,
  "cuisine": null,
  "opening_hours": null,
  "phone": null,
  "website": null,
  "addr": null,
  "raw_tags": {
   "amenity": "restaurant"
  }
 },
 {
  "osm_id": "node/2082867375",
  "name": "Rich",
  "name_en": "Rich",
  "category": "Local Food",
  "lat": 7.8253546,
  "lon": 98.2970673,
  "cuisine": "seafood;thai",
  "opening_hours": "Mo-Su 11:00-01:00",
  "phone": null,
  "website": null,
  "addr": null,
  "raw_tags": {
   "amenity": "restaurant"
  }
 },
 {
  "osm_id": "node/2082867401",
  "name": "Starbucks",
  "name_en": "Starbucks Coffee",
  "category": "Café & Dessert",
  "lat": 7.826578,
  "lon": 98.2968652,
  "cuisine": "coffee_shop",
  "opening_hours": "Mo-Su 07:00-21:00",
  "phone": "+66 84 438 7430",
  "website": "https://www.starbucks.co.th/",
  "addr": null,
  "raw_tags": {
   "amenity": "cafe",
   "shop": "coffee"
  }
 },
 {
  "osm_id": "node/2082869295",
  "name": "Old Siam",
  "name_en": null,
  "category": "Local Food",
  "lat": 7.8350259,
  "lon": 98.2952429,
  "cuisine": "thai",
  "opening_hours": null,
  "phone": null,
  "website": null,
  "addr": null,
  "raw_tags": {
   "amenity": "restaurant"
  }
 },
 {
  "osm_id": "node/2082869314",
  "name": "Long Terrace",
  "name_en": null,
  "category": "Local Food",
  "lat": 7.837184,
  "lon": 98.2951936,
  "cuisine": "italian",
  "opening_hours": null,
  "phone": null,
  "website": null,
  "addr": null,
  "raw_tags": {
   "amenity": "restaurant"
  }
 },
 {
  "osm_id": "node/2178108164",
  "name": "Phuket Yacht Club",
  "name_en": null,
  "category": "Local Food",
  "lat": 7.8272495,
  "lon": 98.3481525,
  "cuisine": "international",
  "opening_hours": null,
  "phone": null,
  "website": "https://phuketyachtclub.com/",
  "addr": null,
  "raw_tags": {
   "amenity": "restaurant"
  }
 },
 {
  "osm_id": "node/2178115289",
  "name": "Capt Hook's",
  "name_en": null,
  "category": "Local Food",
  "lat": 7.8237617,
  "lon": 98.3424021,
  "cuisine": "german",
  "opening_hours": null,
  "phone": null,
  "website": null,
  "addr": null,
  "raw_tags": {
   "amenity": "restaurant"
  }
 },
 {
  "osm_id": "node/2201567979",
  "name": "Phuthai Phuket Souvenir Market",
  "name_en": null,
  "category": "Souvenirs & Crafts",
  "lat": 7.8512681,
  "lon": 98.3489173,
  "cuisine": null,
  "opening_hours": null,
  "phone": null,
  "website": null,
  "addr": null,
  "raw_tags": {
   "shop": "gift"
  }
 },
 {
  "osm_id": "node/2209604172",
  "name": "Nok & Jo's",
  "name_en": null,
  "category": "Local Food",
  "lat": 7.9838937,
  "lon": 98.285325,
  "cuisine": null,
  "opening_hours": null,
  "phone": null,
  "website": null,
  "addr": null,
  "raw_tags": {
   "amenity": "restaurant"
  }
 },
 {
  "osm_id": "node/2209604173",
  "name": "The Flavour Restaurant",
  "name_en": null,
  "category": "Local Food",
  "lat": 7.9785895,
  "lon": 98.2870231,
  "cuisine": null,
  "opening_hours": null,
  "phone": null,
  "website": null,
  "addr": null,
  "raw_tags": {
   "amenity": "restaurant"
  }
 },
 {
  "osm_id": "node/2209993104",
  "name": "Opus One",
  "name_en": null,
  "category": "Local Food",
  "lat": 7.9762928,
  "lon": 98.2843724,
  "cuisine": null,
  "opening_hours": null,
  "phone": null,
  "website": null,
  "addr": null,
  "raw_tags": {
   "amenity": "restaurant"
  }
 },
 {
  "osm_id": "node/2211489508",
  "name": "Rest@Patong",
  "name_en": null,
  "category": "Local Food",
  "lat": 7.8918305,
  "lon": 98.2944654,
  "cuisine": null,
  "opening_hours": null,
  "phone": null,
  "website": null,
  "addr": null,
  "raw_tags": {
   "amenity": "restaurant"
  }
 },
 {
  "osm_id": "node/2211489548",
  "name": "NongJam",
  "name_en": null,
  "category": "Local Food",
  "lat": 7.8982972,
  "lon": 98.2960123,
  "cuisine": null,
  "opening_hours": null,
  "phone": null,
  "website": null,
  "addr": null,
  "raw_tags": {
   "amenity": "restaurant"
  }
 },
 {
  "osm_id": "node/2213096167",
  "name": "Barefoot Beach Shack",
  "name_en": null,
  "category": "Local Food",
  "lat": 7.8980347,
  "lon": 98.296042,
  "cuisine": null,
  "opening_hours": null,
  "phone": null,
  "website": null,
  "addr": null,
  "raw_tags": {
   "amenity": "restaurant"
  }
 },
 {
  "osm_id": "node/2324436695",
  "name": "Baumancasa",
  "name_en": null,
  "category": "Local Food",
  "lat": 7.8426679,
  "lon": 98.295089,
  "cuisine": null,
  "opening_hours": null,
  "phone": null,
  "website": null,
  "addr": "188, 188/3, 188/5 Karon Rd. Phuket",
  "raw_tags": {
   "amenity": "restaurant",
   "tourism": "hotel"
  }
 },
 {
  "osm_id": "node/2408503383",
  "name": "เมืองอาหารตลาด",
  "name_en": null,
  "category": "Local Product / Market",
  "lat": 7.8839197,
  "lon": 98.3860928,
  "cuisine": null,
  "opening_hours": null,
  "phone": null,
  "website": null,
  "addr": null,
  "raw_tags": {
   "amenity": "marketplace"
  }
 },
 {
  "osm_id": "node/2424927390",
  "name": "Mee Ton Poh",
  "name_en": null,
  "category": "Local Food",
  "lat": 7.8800056,
  "lon": 98.3920891,
  "cuisine": null,
  "opening_hours": null,
  "phone": null,
  "website": null,
  "addr": null,
  "raw_tags": {
   "amenity": "restaurant"
  }
 },
 {
  "osm_id": "node/2434607516",
  "name": "น้ำตกบางแป",
  "name_en": "Bang Pae Waterfall",
  "category": "Attraction / Experience",
  "lat": 8.0382292,
  "lon": 98.3904109,
  "cuisine": null,
  "opening_hours": null,
  "phone": null,
  "website": null,
  "addr": null,
  "raw_tags": {
   "tourism": "attraction"
  }
 },
 {
  "osm_id": "node/2504525674",
  "name": "พิพิธภัณฑสถานแห่งชาติ ถลาง",
  "name_en": "Thalang National Museum",
  "category": "Attraction / Experience",
  "lat": 7.9809271,
  "lon": 98.3669399,
  "cuisine": null,
  "opening_hours": "We-Su 09:00-16:00",
  "phone": "0763798957",
  "website": "https://www.finearts.go.th/talangmuseum",
  "addr": null,
  "raw_tags": {
   "tourism": "museum"
  }
 },
 {
  "osm_id": "node/2509498066",
  "name": "Peach Restaurant",
  "name_en": null,
  "category": "Local Food",
  "lat": 7.8263391,
  "lon": 98.2966407,
  "cuisine": null,
  "opening_hours": null,
  "phone": null,
  "website": null,
  "addr": null,
  "raw_tags": {
   "amenity": "restaurant"
  }
 },
 {
  "osm_id": "node/2509577855",
  "name": "Subway",
  "name_en": "Subway",
  "category": "Local Food",
  "lat": 7.8981867,
  "lon": 98.2967821,
  "cuisine": "sandwich",
  "opening_hours": null,
  "phone": null,
  "website": "https://www.subway.co.th/",
  "addr": null,
  "raw_tags": {
   "amenity": "fast_food"
  }
 },
 {
  "osm_id": "node/2509577901",
  "name": "3 Spices",
  "name_en": null,
  "category": "Local Food",
  "lat": 7.8972753,
  "lon": 98.2964007,
  "cuisine": null,
  "opening_hours": null,
  "phone": null,
  "website": null,
  "addr": null,
  "raw_tags": {
   "amenity": "restaurant"
  }
 },
 {
  "osm_id": "node/2509632249",
  "name": "Bistro",
  "name_en": null,
  "category": "Local Food",
  "lat": 7.8960787,
  "lon": 98.2960559,
  "cuisine": null,
  "opening_hours": null,
  "phone": null,
  "website": null,
  "addr": null,
  "raw_tags": {
   "amenity": "restaurant"
  }
 },
 {
  "osm_id": "node/2509632253",
  "name": "McDonald's",
  "name_en": "McDonald's",
  "category": "Local Food",
  "lat": 7.8955707,
  "lon": 98.2958711,
  "cuisine": "burger",
  "opening_hours": null,
  "phone": "1711",
  "website": "https://www.mcthai.co.th/",
  "addr": null,
  "raw_tags": {
   "amenity": "fast_food"
  }
 },
 {
  "osm_id": "node/2509632256",
  "name": "Savoey",
  "name_en": null,
  "category": "Local Food",
  "lat": 7.8942613,
  "lon": 98.2955385,
  "cuisine": null,
  "opening_hours": null,
  "phone": null,
  "website": null,
  "addr": null,
  "raw_tags": {
   "amenity": "restaurant"
  }
 },
 {
  "osm_id": "node/2509641091",
  "name": "Kee Sky Lounge",
  "name_en": null,
  "category": "Local Food",
  "lat": 7.8950791,
  "lon": 98.2973117,
  "cuisine": null,
  "opening_hours": null,
  "phone": null,
  "website": null,
  "addr": null,
  "raw_tags": {
   "amenity": "restaurant"
  }
 },
 {
  "osm_id": "node/2513821648",
  "name": "Windmill Viewpoint",
  "name_en": null,
  "category": "Attraction / Experience",
  "lat": 7.769654,
  "lon": 98.3062833,
  "cuisine": null,
  "opening_hours": null,
  "phone": null,
  "website": "https://streets.gl/#7.77071,98.30539,28.99,324.89,186.85",
  "addr": null,
  "raw_tags": {
   "tourism": "viewpoint"
  }
 },
 {
  "osm_id": "node/2513851699",
  "name": "Mando",
  "name_en": null,
  "category": "Local Food",
  "lat": 7.7724037,
  "lon": 98.3217404,
  "cuisine": "thai",
  "opening_hours": null,
  "phone": null,
  "website": null,
  "addr": null,
  "raw_tags": {
   "amenity": "restaurant"
  }
 },
 {
  "osm_id": "node/2513851703",
  "name": "Rawai Indian Restaurant",
  "name_en": null,
  "category": "Local Food",
  "lat": 7.7744839,
  "lon": 98.3255585,
  "cuisine": null,
  "opening_hours": null,
  "phone": null,
  "website": null,
  "addr": null,
  "raw_tags": {
   "amenity": "restaurant"
  }
 },
 {
  "osm_id": "node/2513851704",
  "name": "Salalloy Seafood",
  "name_en": null,
  "category": "Local Food",
  "lat": 7.7745398,
  "lon": 98.325664,
  "cuisine": null,
  "opening_hours": null,
  "phone": null,
  "website": null,
  "addr": null,
  "raw_tags": {
   "amenity": "restaurant"
  }
 },
 {
  "osm_id": "node/2513851725",
  "name": "SAM Restaurant",
  "name_en": null,
  "category": "Local Food",
  "lat": 7.7686598,
  "lon": 98.3174371,
  "cuisine": null,
  "opening_hours": null,
  "phone": null,
  "website": null,
  "addr": null,
  "raw_tags": {
   "amenity": "restaurant"
  }
 },
 {
  "osm_id": "node/2513851729",
  "name": "Naat",
  "name_en": null,
  "category": "Local Food",
  "lat": 7.7691775,
  "lon": 98.3177264,
  "cuisine": null,
  "opening_hours": null,
  "phone": null,
  "website": null,
  "addr": null,
  "raw_tags": {
   "amenity": "restaurant"
  }
 },
 {
  "osm_id": "node/2513851735",
  "name": "Jao Jong",
  "name_en": "Jao Jong",
  "category": "Local Food",
  "lat": 7.7694547,
  "lon": 98.3179254,
  "cuisine": null,
  "opening_hours": null,
  "phone": null,
  "website": null,
  "addr": null,
  "raw_tags": {
   "amenity": "restaurant"
  }
 },
 {
  "osm_id": "node/2513851743",
  "name": "Jao Nan",
  "name_en": null,
  "category": "Local Food",
  "lat": 7.769973,
  "lon": 98.3183757,
  "cuisine": null,
  "opening_hours": null,
  "phone": null,
  "website": null,
  "addr": null,
  "raw_tags": {
   "amenity": "restaurant"
  }
 },
 {
  "osm_id": "node/2565560001",
  "name": "Kwong Shop Seafood Restaurant",
  "name_en": null,
  "category": "Local Food",
  "lat": 7.8267981,
  "lon": 98.2985324,
  "cuisine": "thai",
  "opening_hours": "Mo-Su 10:00-23:00",
  "phone": null,
  "website": null,
  "addr": null,
  "raw_tags": {
   "amenity": "restaurant"
  }
 },
 {
  "osm_id": "node/2592686732",
  "name": "Waterfall",
  "name_en": null,
  "category": "Local Food",
  "lat": 7.7676323,
  "lon": 98.3087258,
  "cuisine": null,
  "opening_hours": null,
  "phone": null,
  "website": null,
  "addr": null,
  "raw_tags": {
   "amenity": "restaurant"
  }
 },
 {
  "osm_id": "node/2822611569",
  "name": "Krua Seeb Rhoy",
  "name_en": "Krua Seeb Rhoy",
  "category": "Local Food",
  "lat": 7.997761,
  "lon": 98.3502399,
  "cuisine": "thai",
  "opening_hours": null,
  "phone": null,
  "website": null,
  "addr": null,
  "raw_tags": {
   "amenity": "restaurant"
  }
 },
 {
  "osm_id": "node/2835558850",
  "name": "จุดชมวิวเขารัง",
  "name_en": "Khao Rang Viewpoint",
  "category": "Attraction / Experience",
  "lat": 7.8923831,
  "lon": 98.380192,
  "cuisine": null,
  "opening_hours": null,
  "phone": null,
  "website": null,
  "addr": null,
  "raw_tags": {
   "tourism": "viewpoint"
  }
 },
 {
  "osm_id": "node/2976865016",
  "name": "Mama Nang",
  "name_en": "Mama Nang",
  "category": "Local Food",
  "lat": 8.0915032,
  "lon": 98.2982633,
  "cuisine": null,
  "opening_hours": null,
  "phone": null,
  "website": null,
  "addr": null,
  "raw_tags": {
   "amenity": "restaurant"
  }
 },
 {
  "osm_id": "node/3014367738",
  "name": "Seaside",
  "name_en": null,
  "category": "Local Food",
  "lat": 7.986024,
  "lon": 98.2870722,
  "cuisine": null,
  "opening_hours": null,
  "phone": null,
  "website": null,
  "addr": null,
  "raw_tags": {
   "amenity": "restaurant"
  }
 },
 {
  "osm_id": "node/3014367766",
  "name": "Bliss Beach Club",
  "name_en": "Catch Beach Club",
  "category": "Bar / Nightlife",
  "lat": 7.9885765,
  "lon": 98.2891798,
  "cuisine": null,
  "opening_hours": "Su-Th 11:00-24:00; fr-sa 11:00-01:00",
  "phone": "+66653482017",
  "website": "https://catchbeachclub.com",
  "addr": null,
  "raw_tags": {
   "amenity": "bar"
  }
 },
 {
  "osm_id": "node/3139150439",
  "name": "Ban Kanon",
  "name_en": null,
  "category": "Café & Dessert",
  "lat": 7.8384118,
  "lon": 98.3490553,
  "cuisine": null,
  "opening_hours": null,
  "phone": null,
  "website": null,
  "addr": null,
  "raw_tags": {
   "shop": "bakery"
  }
 },
 {
  "osm_id": "node/3208681218",
  "name": "Starbucks",
  "name_en": "Starbucks Coffee",
  "category": "Café & Dessert",
  "lat": 7.8903393,
  "lon": 98.3005071,
  "cuisine": "coffee_shop",
  "opening_hours": null,
  "phone": null,
  "website": "https://www.starbucks.co.th/",
  "addr": null,
  "raw_tags": {
   "amenity": "cafe"
  }
 },
 {
  "osm_id": "node/3209238433",
  "name": "Sabai Sabai",
  "name_en": null,
  "category": "Local Food",
  "lat": 7.8916,
  "lon": 98.29425,
  "cuisine": "thai",
  "opening_hours": null,
  "phone": null,
  "website": null,
  "addr": null,
  "raw_tags": {
   "amenity": "restaurant"
  }
 },
 {
  "osm_id": "node/3216947361",
  "name": "Turkish Kebab Bangla",
  "name_en": null,
  "category": "Local Food",
  "lat": 7.8940843,
  "lon": 98.29538,
  "cuisine": "kebab",
  "opening_hours": null,
  "phone": null,
  "website": null,
  "addr": null,
  "raw_tags": {
   "amenity": "fast_food"
  }
 },
 {
  "osm_id": "node/3216959163",
  "name": "KFC",
  "name_en": "KFC",
  "category": "Local Food",
  "lat": 7.8940118,
  "lon": 98.2971505,
  "cuisine": "chicken",
  "opening_hours": null,
  "phone": "1150",
  "website": "https://www.kfc.co.th/",
  "addr": null,
  "raw_tags": {
   "amenity": "fast_food"
  }
 },
 {
  "osm_id": "node/3216984461",
  "name": "Madras Cafe",
  "name_en": null,
  "category": "Local Food",
  "lat": 7.8927022,
  "lon": 98.2980621,
  "cuisine": "indian",
  "opening_hours": null,
  "phone": null,
  "website": null,
  "addr": null,
  "raw_tags": {
   "amenity": "restaurant"
  }
 },
 {
  "osm_id": "node/3216984761",
  "name": "Rock Hard",
  "name_en": null,
  "category": "Bar / Nightlife",
  "lat": 7.8932623,
  "lon": 98.2981801,
  "cuisine": null,
  "opening_hours": null,
  "phone": null,
  "website": null,
  "addr": null,
  "raw_tags": {
   "amenity": "bar"
  }
 },
 {
  "osm_id": "node/3216985761",
  "name": "KOH Bamboo",
  "name_en": null,
  "category": "Bar / Nightlife",
  "lat": 7.8933287,
  "lon": 98.2979768,
  "cuisine": null,
  "opening_hours": null,
  "phone": null,
  "website": null,
  "addr": null,
  "raw_tags": {
   "amenity": "bar"
  }
 },
 {
  "osm_id": "node/3216986661",
  "name": "Moulin Rouge",
  "name_en": null,
  "category": "Bar / Nightlife",
  "lat": 7.8933444,
  "lon": 98.2978661,
  "cuisine": null,
  "opening_hours": null,
  "phone": null,
  "website": null,
  "addr": null,
  "raw_tags": {
   "amenity": "bar"
  }
 },
 {
  "osm_id": "node/3226322545",
  "name": "Canteen",
  "name_en": null,
  "category": "Local Food",
  "lat": 7.8924243,
  "lon": 98.3521225,
  "cuisine": "thai",
  "opening_hours": "08:00-14:00",
  "phone": null,
  "website": null,
  "addr": null,
  "raw_tags": {
   "amenity": "restaurant"
  }
 },
 {
  "osm_id": "node/3272883567",
  "name": "Flintstone",
  "name_en": null,
  "category": "Café & Dessert",
  "lat": 7.7758516,
  "lon": 98.3272294,
  "cuisine": null,
  "opening_hours": null,
  "phone": null,
  "website": null,
  "addr": null,
  "raw_tags": {
   "shop": "bakery"
  }
 },
 {
  "osm_id": "node/3272883569",
  "name": "Otto",
  "name_en": null,
  "category": "Local Food",
  "lat": 7.7789161,
  "lon": 98.3286887,
  "cuisine": "german",
  "opening_hours": null,
  "phone": null,
  "website": null,
  "addr": null,
  "raw_tags": {
   "amenity": "restaurant"
  }
 },
 {
  "osm_id": "node/3272883574",
  "name": "Stammtisch",
  "name_en": null,
  "category": "Local Food",
  "lat": 7.7845707,
  "lon": 98.3173861,
  "cuisine": "german",
  "opening_hours": null,
  "phone": null,
  "website": null,
  "addr": null,
  "raw_tags": {
   "amenity": "restaurant"
  }
 },
 {
  "osm_id": "node/3277475708",
  "name": "เกาะราชาใหญ่",
  "name_en": "Ko Racha Yai viewpoint",
  "category": "Attraction / Experience",
  "lat": 7.6088838,
  "lon": 98.3670775,
  "cuisine": null,
  "opening_hours": null,
  "phone": null,
  "website": null,
  "addr": null,
  "raw_tags": {
   "tourism": "viewpoint"
  }
 },
 {
  "osm_id": "node/3280474321",
  "name": "ตลาดชุมชน บ้านบ่อแร่",
  "name_en": "Local Market Baan Borae",
  "category": "Local Product / Market",
  "lat": 7.8415812,
  "lon": 98.3772515,
  "cuisine": null,
  "opening_hours": null,
  "phone": null,
  "website": null,
  "addr": null,
  "raw_tags": {
   "amenity": "marketplace"
  }
 },
 {
  "osm_id": "node/3280933347",
  "name": "Might Food Market",
  "name_en": null,
  "category": "Local Product / Market",
  "lat": 7.9816895,
  "lon": 98.3637714,
  "cuisine": null,
  "opening_hours": null,
  "phone": null,
  "website": null,
  "addr": null,
  "raw_tags": {
   "amenity": "marketplace"
  }
 },
 {
  "osm_id": "node/3296292563",
  "name": "Halfway Inn",
  "name_en": null,
  "category": "Local Food",
  "lat": 7.8891916,
  "lon": 98.2951273,
  "cuisine": "thai",
  "opening_hours": null,
  "phone": null,
  "website": "https://www.tripadvisor.com/Restaurant_Review-g297930-d3641045-Reviews-Halfway_Inn-Patong_Kathu_Phuket.html",
  "addr": null,
  "raw_tags": {
   "amenity": "restaurant"
  }
 },
 {
  "osm_id": "node/3296300959",
  "name": "The Sweet Restaurant",
  "name_en": null,
  "category": "Local Food",
  "lat": 7.8919269,
  "lon": 98.2948966,
  "cuisine": null,
  "opening_hours": null,
  "phone": null,
  "website": "http://www.thesweetrestaurant.com/",
  "addr": null,
  "raw_tags": {
   "amenity": "restaurant"
  }
 },
 {
  "osm_id": "node/3296362961",
  "name": "Cafeopera Live - Kata Beach",
  "name_en": null,
  "category": "Local Food",
  "lat": 7.8171638,
  "lon": 98.3012987,
  "cuisine": "thai",
  "opening_hours": null,
  "phone": null,
  "website": "https://www.facebook.com/pages/Cafeopera-live-Kata-Beach/269189859788067",
  "addr": null,
  "raw_tags": {
   "amenity": "restaurant"
  }
 },
 {
  "osm_id": "node/3296362962",
  "name": "Eightfold Restaurant",
  "name_en": null,
  "category": "Local Food",
  "lat": 7.8210523,
  "lon": 98.3000503,
  "cuisine": "thai",
  "opening_hours": "Mo-Su 11:30-22:00",
  "phone": null,
  "website": "https://www.tripadvisor.com/Restaurant_Review-g1210687-d1392030-Reviews-Eightfold_Restaurant-Kata_Beach_Phuket.html",
  "addr": null,
  "raw_tags": {
   "amenity": "restaurant"
  }
 },
 {
  "osm_id": "node/3306363263",
  "name": "Hooters",
  "name_en": null,
  "category": "Local Food",
  "lat": 7.8873407,
  "lon": 98.2945068,
  "cuisine": "burger",
  "opening_hours": null,
  "phone": "+66 76 349939",
  "website": "https://www.hootersasia.com/location/hooters-phuket/",
  "addr": null,
  "raw_tags": {
   "amenity": "restaurant"
  }
 },
 {
  "osm_id": "node/3337446621",
  "name": "Raya restaurant",
  "name_en": null,
  "category": "Local Food",
  "lat": 7.6088211,
  "lon": 98.3675032,
  "cuisine": null,
  "opening_hours": "Mo-Su 08:00-08:00",
  "phone": null,
  "website": null,
  "addr": null,
  "raw_tags": {
   "amenity": "restaurant"
  }
 },
 {
  "osm_id": "node/3337837848",
  "name": "Enjoys Beach House Karon",
  "name_en": null,
  "category": "Café & Dessert",
  "lat": 7.8340192,
  "lon": 98.2987473,
  "cuisine": "regional",
  "opening_hours": "10:00-22:00",
  "phone": null,
  "website": "http://enjoys-phuket.com/rus/facilities.html",
  "addr": "294 294 Patak Road. Karon Beach Amphur muang Phuket",
  "raw_tags": {
   "amenity": "cafe"
  }
 },
 {
  "osm_id": "node/3349500152",
  "name": "Asia Bar",
  "name_en": null,
  "category": "Bar / Nightlife",
  "lat": 7.7888264,
  "lon": 98.3300083,
  "cuisine": null,
  "opening_hours": null,
  "phone": null,
  "website": null,
  "addr": null,
  "raw_tags": {
   "amenity": "bar"
  }
 },
 {
  "osm_id": "node/3364605438",
  "name": "Khao Tom Sam Pee Nong",
  "name_en": null,
  "category": "Local Food",
  "lat": 7.8308186,
  "lon": 98.3007173,
  "cuisine": "seafood;thai",
  "opening_hours": null,
  "phone": null,
  "website": null,
  "addr": null,
  "raw_tags": {
   "amenity": "restaurant"
  }
 },
 {
  "osm_id": "node/3385995561",
  "name": "Jasmine Bar",
  "name_en": null,
  "category": "Bar / Nightlife",
  "lat": 7.7889327,
  "lon": 98.3300432,
  "cuisine": null,
  "opening_hours": null,
  "phone": null,
  "website": null,
  "addr": null,
  "raw_tags": {
   "amenity": "bar"
  }
 },
 {
  "osm_id": "node/3385996178",
  "name": "Trattoria Restaurant",
  "name_en": null,
  "category": "Local Food",
  "lat": 7.7888822,
  "lon": 98.329716,
  "cuisine": "italian",
  "opening_hours": null,
  "phone": null,
  "website": null,
  "addr": null,
  "raw_tags": {
   "amenity": "restaurant"
  }
 },
 {
  "osm_id": "node/3451797389",
  "name": "Salad Diary",
  "name_en": null,
  "category": "Local Food",
  "lat": 7.7720382,
  "lon": 98.321046,
  "cuisine": "american",
  "opening_hours": "07:00-17:00",
  "phone": null,
  "website": "http://thetitlephuket.wix.com/thetitlephuket",
  "addr": null,
  "raw_tags": {
   "amenity": "restaurant"
  }
 },
 {
  "osm_id": "node/3488626324",
  "name": "Starbucks",
  "name_en": "Starbucks Coffee",
  "category": "Café & Dessert",
  "lat": 7.8908793,
  "lon": 98.2938876,
  "cuisine": "coffee_shop",
  "opening_hours": null,
  "phone": null,
  "website": "https://www.starbucks.co.th/",
  "addr": null,
  "raw_tags": {
   "amenity": "cafe",
   "shop": "coffee"
  }
 },
 {
  "osm_id": "node/3488626325",
  "name": "Starbucks",
  "name_en": "Starbucks Coffee",
  "category": "Café & Dessert",
  "lat": 7.8922267,
  "lon": 98.2982938,
  "cuisine": "coffee_shop",
  "opening_hours": "Mo-Su 10:00-00:00",
  "phone": null,
  "website": "https://www.starbucks.co.th/",
  "addr": "Soi Bangla",
  "raw_tags": {
   "amenity": "cafe"
  }
 },
 {
  "osm_id": "node/3488626326",
  "name": "The Star",
  "name_en": null,
  "category": "Bar / Nightlife",
  "lat": 7.8939472,
  "lon": 98.2957266,
  "cuisine": null,
  "opening_hours": null,
  "phone": null,
  "website": null,
  "addr": null,
  "raw_tags": {
   "amenity": "bar"
  }
 },
 {
  "osm_id": "node/3504515786",
  "name": "Brown Rice Restaurant",
  "name_en": null,
  "category": "Local Food",
  "lat": 7.7925288,
  "lon": 98.321347,
  "cuisine": null,
  "opening_hours": null,
  "phone": null,
  "website": null,
  "addr": null,
  "raw_tags": {
   "amenity": "restaurant"
  }
 },
 {
  "osm_id": "node/3612232919",
  "name": "Thai, European food",
  "name_en": null,
  "category": "Local Food",
  "lat": 7.8242041,
  "lon": 98.2985747,
  "cuisine": null,
  "opening_hours": null,
  "phone": null,
  "website": null,
  "addr": null,
  "raw_tags": {
   "amenity": "restaurant"
  }
 },
 {
  "osm_id": "node/3612232920",
  "name": "Khan Baba Restaurant",
  "name_en": null,
  "category": "Local Food",
  "lat": 7.8241263,
  "lon": 98.2983676,
  "cuisine": "indian",
  "opening_hours": null,
  "phone": null,
  "website": null,
  "addr": null,
  "raw_tags": {
   "amenity": "restaurant"
  }
 },
 {
  "osm_id": "node/3647718032",
  "name": "Tung Tong Big Chicken",
  "name_en": null,
  "category": "Local Food",
  "lat": 7.8999778,
  "lon": 98.349562,
  "cuisine": "thai",
  "opening_hours": null,
  "phone": null,
  "website": null,
  "addr": null,
  "raw_tags": {
   "amenity": "restaurant"
  }
 },
 {
  "osm_id": "node/3707008812",
  "name": "Oscar Bar",
  "name_en": null,
  "category": "Bar / Nightlife",
  "lat": 7.8932184,
  "lon": 98.2982993,
  "cuisine": null,
  "opening_hours": null,
  "phone": null,
  "website": null,
  "addr": null,
  "raw_tags": {
   "amenity": "bar"
  }
 },
 {
  "osm_id": "node/3707008813",
  "name": "Parrot",
  "name_en": null,
  "category": "Bar / Nightlife",
  "lat": 7.8941462,
  "lon": 98.2984353,
  "cuisine": null,
  "opening_hours": null,
  "phone": null,
  "website": null,
  "addr": null,
  "raw_tags": {
   "amenity": "bar"
  }
 },
 {
  "osm_id": "node/3707008817",
  "name": "The Pizza Company",
  "name_en": "The Pizza Company",
  "category": "Local Food",
  "lat": 7.8922782,
  "lon": 98.2979191,
  "cuisine": "pizza",
  "opening_hours": null,
  "phone": "1112",
  "website": "https://www.1112.com/",
  "addr": null,
  "raw_tags": {
   "amenity": "fast_food"
  }
 },
 {
  "osm_id": "node/3742625398",
  "name": "The Boss Bar",
  "name_en": "The Boss Bar",
  "category": "Local Food",
  "lat": 8.0937473,
  "lon": 98.2992169,
  "cuisine": null,
  "opening_hours": null,
  "phone": null,
  "website": null,
  "addr": null,
  "raw_tags": {
   "amenity": "restaurant"
  }
 },
 {
  "osm_id": "node/3742625420",
  "name": "Black Ginger Restutant",
  "name_en": "Black Ginger Restutant",
  "category": "Local Food",
  "lat": 8.0851673,
  "lon": 98.2982889,
  "cuisine": null,
  "opening_hours": null,
  "phone": null,
  "website": null,
  "addr": null,
  "raw_tags": {
   "amenity": "restaurant"
  }
 },
 {
  "osm_id": "node/3822904301",
  "name": "Moo Restaurant",
  "name_en": null,
  "category": "Local Food",
  "lat": 7.7793527,
  "lon": 98.328765,
  "cuisine": "thai",
  "opening_hours": "07:00-23:00",
  "phone": null,
  "website": null,
  "addr": null,
  "raw_tags": {
   "amenity": "restaurant"
  }
 },
 {
  "osm_id": "node/3880052748",
  "name": "The Beach",
  "name_en": null,
  "category": "Local Food",
  "lat": 7.8245226,
  "lon": 98.2998488,
  "cuisine": null,
  "opening_hours": null,
  "phone": null,
  "website": null,
  "addr": null,
  "raw_tags": {
   "amenity": "restaurant"
  }
 },
 {
  "osm_id": "node/3880074182",
  "name": "Palm Square",
  "name_en": null,
  "category": "Local Food",
  "lat": 7.8217334,
  "lon": 98.2993983,
  "cuisine": null,
  "opening_hours": "Mo-Su 11:00-24:00",
  "phone": "+66 88 765 3515",
  "website": null,
  "addr": null,
  "raw_tags": {
   "amenity": "restaurant"
  }
 },
 {
  "osm_id": "node/3880495228",
  "name": "Buffalo Stakehouse",
  "name_en": null,
  "category": "Local Food",
  "lat": 7.8175929,
  "lon": 98.3006543,
  "cuisine": "steak_house",
  "opening_hours": null,
  "phone": null,
  "website": null,
  "addr": null,
  "raw_tags": {
   "amenity": "restaurant"
  }
 },
 {
  "osm_id": "node/3880504347",
  "name": "At Beach Bar and Restaurant",
  "name_en": null,
  "category": "Local Food",
  "lat": 7.8161932,
  "lon": 98.2996048,
  "cuisine": null,
  "opening_hours": "Mo-Su 10:00-19:00",
  "phone": "+66 76 360 300",
  "website": "https://atbeachrestaurant.com",
  "addr": null,
  "raw_tags": {
   "amenity": "restaurant"
  }
 },
 {
  "osm_id": "node/3889136635",
  "name": "Jinta Breakfast",
  "name_en": null,
  "category": "Local Food",
  "lat": 7.8233431,
  "lon": 98.3004394,
  "cuisine": "thai",
  "opening_hours": null,
  "phone": null,
  "website": null,
  "addr": null,
  "raw_tags": {
   "amenity": "restaurant"
  }
 },
 {
  "osm_id": "node/3889186415",
  "name": "Pit Stop",
  "name_en": null,
  "category": "Local Food",
  "lat": 7.823155,
  "lon": 98.3003294,
  "cuisine": null,
  "opening_hours": null,
  "phone": null,
  "website": null,
  "addr": null,
  "raw_tags": {
   "amenity": "restaurant"
  }
 },
 {
  "osm_id": "node/3889187308",
  "name": "Lana",
  "name_en": null,
  "category": "Local Food",
  "lat": 7.8221908,
  "lon": 98.2989624,
  "cuisine": null,
  "opening_hours": null,
  "phone": null,
  "website": null,
  "addr": null,
  "raw_tags": {
   "amenity": "restaurant"
  }
 },
 {
  "osm_id": "node/3890369191",
  "name": "Kata Mama Seafood",
  "name_en": null,
  "category": "Local Food",
  "lat": 7.8132485,
  "lon": 98.298304,
  "cuisine": "thai",
  "opening_hours": null,
  "phone": null,
  "website": null,
  "addr": null,
  "raw_tags": {
   "amenity": "restaurant"
  }
 },
 {
  "osm_id": "node/3891144792",
  "name": "Aqua",
  "name_en": null,
  "category": "Local Food",
  "lat": 7.816664,
  "lon": 98.3008858,
  "cuisine": "seafood",
  "opening_hours": "Mo-Su 10:00-23:00",
  "phone": "+66 61 994 5398",
  "website": null,
  "addr": null,
  "raw_tags": {
   "amenity": "restaurant"
  }
 },
 {
  "osm_id": "node/3891146235",
  "name": "Pizza",
  "name_en": "The Pizza Company",
  "category": "Local Food",
  "lat": 7.8243123,
  "lon": 98.2976986,
  "cuisine": null,
  "opening_hours": null,
  "phone": null,
  "website": null,
  "addr": null,
  "raw_tags": {
   "amenity": "restaurant"
  }
 },
 {
  "osm_id": "node/3891153450",
  "name": "Dino Bar / Dino park",
  "name_en": "Dino Bar and Dino Park",
  "category": "Bar / Nightlife",
  "lat": 7.828247,
  "lon": 98.2956484,
  "cuisine": null,
  "opening_hours": null,
  "phone": null,
  "website": null,
  "addr": null,
  "raw_tags": {
   "amenity": "bar"
  }
 },
 {
  "osm_id": "node/3891221356",
  "name": "@Beach",
  "name_en": null,
  "category": "Local Food",
  "lat": 7.8300518,
  "lon": 98.2952676,
  "cuisine": null,
  "opening_hours": null,
  "phone": null,
  "website": null,
  "addr": null,
  "raw_tags": {
   "amenity": "restaurant"
  }
 },
 {
  "osm_id": "node/3891221562",
  "name": "Red Chopsticks",
  "name_en": null,
  "category": "Local Food",
  "lat": 7.8289853,
  "lon": 98.2953998,
  "cuisine": "seafood;steak_house",
  "opening_hours": "Mo-Su 12:00-22:00; Sa 14:00-22:00",
  "phone": "+66 98 015 0519",
  "website": null,
  "addr": null,
  "raw_tags": {
   "amenity": "restaurant"
  }
 },
 {
  "osm_id": "node/3891221625",
  "name": "El Gaucha",
  "name_en": null,
  "category": "Local Food",
  "lat": 7.8465337,
  "lon": 98.2941906,
  "cuisine": null,
  "opening_hours": null,
  "phone": null,
  "website": null,
  "addr": null,
  "raw_tags": {
   "amenity": "restaurant"
  }
 },
 {
  "osm_id": "node/3891221626",
  "name": "GG's Pizza",
  "name_en": null,
  "category": "Local Food",
  "lat": 7.847213,
  "lon": 98.2935594,
  "cuisine": "italian",
  "opening_hours": null,
  "phone": null,
  "website": null,
  "addr": null,
  "raw_tags": {
   "amenity": "restaurant"
  }
 },
 {
  "osm_id": "node/3891224591",
  "name": "Subway",
  "name_en": null,
  "category": "Local Food",
  "lat": 7.8338837,
  "lon": 98.2953197,
  "cuisine": "sandwich",
  "opening_hours": null,
  "phone": null,
  "website": "https://www.subway.com",
  "addr": null,
  "raw_tags": {
   "amenity": "fast_food"
  }
 },
 {
  "osm_id": "node/3891229051",
  "name": "Buffalo Stakehouse",
  "name_en": null,
  "category": "Local Food",
  "lat": 7.8476812,
  "lon": 98.2936357,
  "cuisine": "steak_house",
  "opening_hours": null,
  "phone": null,
  "website": null,
  "addr": null,
  "raw_tags": {
   "amenity": "restaurant"
  }
 },
 {
  "osm_id": "node/3891229052",
  "name": "Capri",
  "name_en": null,
  "category": "Local Food",
  "lat": 7.848716,
  "lon": 98.294245,
  "cuisine": "pizza;seafood;italian",
  "opening_hours": null,
  "phone": null,
  "website": null,
  "addr": null,
  "raw_tags": {
   "amenity": "restaurant"
  }
 },
 {
  "osm_id": "node/3921137742",
  "name": "KFC",
  "name_en": "KFC",
  "category": "Local Food",
  "lat": 7.9040719,
  "lon": 98.3689427,
  "cuisine": "chicken",
  "opening_hours": null,
  "phone": "1150",
  "website": "https://www.kfc.co.th/",
  "addr": null,
  "raw_tags": {
   "amenity": "fast_food"
  }
 },
 {
  "osm_id": "node/3921137744",
  "name": "McDonald's",
  "name_en": "McDonald's",
  "category": "Local Food",
  "lat": 7.8916739,
  "lon": 98.3668538,
  "cuisine": "burger",
  "opening_hours": null,
  "phone": "1711",
  "website": "https://www.mcthai.co.th/",
  "addr": null,
  "raw_tags": {
   "amenity": "fast_food"
  }
 },
 {
  "osm_id": "node/3921137749",
  "name": "Tori Japanese buffet",
  "name_en": null,
  "category": "Local Food",
  "lat": 7.8937457,
  "lon": 98.3661059,
  "cuisine": "japanese",
  "opening_hours": "Mo-Su 11:00-21:30",
  "phone": null,
  "website": null,
  "addr": null,
  "raw_tags": {
   "amenity": "restaurant"
  }
 },
 {
  "osm_id": "node/3921155992",
  "name": "Secret Cliff",
  "name_en": null,
  "category": "Local Food",
  "lat": 7.8604766,
  "lon": 98.2845292,
  "cuisine": null,
  "opening_hours": null,
  "phone": null,
  "website": null,
  "addr": null,
  "raw_tags": {
   "amenity": "restaurant"
  }
 },
 {
  "osm_id": "node/3937683546",
  "name": "The Hourglass",
  "name_en": null,
  "category": "Bar / Nightlife",
  "lat": 7.9080901,
  "lon": 98.2974343,
  "cuisine": null,
  "opening_hours": null,
  "phone": null,
  "website": null,
  "addr": null,
  "raw_tags": {
   "amenity": "bar"
  }
 },
 {
  "osm_id": "node/3937683547",
  "name": "Ruen Thong",
  "name_en": null,
  "category": "Local Food",
  "lat": 7.9075927,
  "lon": 98.2977815,
  "cuisine": null,
  "opening_hours": null,
  "phone": null,
  "website": null,
  "addr": null,
  "raw_tags": {
   "amenity": "restaurant"
  }
 },
 {
  "osm_id": "node/3937683548",
  "name": "The Old Fisherman",
  "name_en": null,
  "category": "Bar / Nightlife",
  "lat": 7.9075063,
  "lon": 98.2972088,
  "cuisine": null,
  "opening_hours": null,
  "phone": null,
  "website": null,
  "addr": null,
  "raw_tags": {
   "amenity": "bar"
  }
 },
 {
  "osm_id": "node/3964570308",
  "name": "Pint Factory",
  "name_en": null,
  "category": "Local Food",
  "lat": 7.8862634,
  "lon": 98.3921209,
  "cuisine": null,
  "opening_hours": null,
  "phone": null,
  "website": null,
  "addr": null,
  "raw_tags": {
   "amenity": "restaurant"
  }
 },
 {
  "osm_id": "node/3964570323",
  "name": "Tom N Toms",
  "name_en": null,
  "category": "Café & Dessert",
  "lat": 7.8862755,
  "lon": 98.3919605,
  "cuisine": "coffee_shop;pretzel;smoothie;tea;bread",
  "opening_hours": null,
  "phone": null,
  "website": null,
  "addr": null,
  "raw_tags": {
   "amenity": "cafe"
  }
 },
 {
  "osm_id": "node/3964581655",
  "name": "Xorin",
  "name_en": null,
  "category": "Local Food",
  "lat": 7.8855705,
  "lon": 98.3907317,
  "cuisine": "japanese",
  "opening_hours": null,
  "phone": null,
  "website": null,
  "addr": null,
  "raw_tags": {
   "amenity": "restaurant"
  }
 },
 {
  "osm_id": "node/3964632353",
  "name": "Sin & Lee Printing Works",
  "name_en": null,
  "category": "Souvenirs & Crafts",
  "lat": 7.88487,
  "lon": 98.3885914,
  "cuisine": null,
  "opening_hours": null,
  "phone": null,
  "website": null,
  "addr": null,
  "raw_tags": {
   "craft": "printer"
  }
 },
 {
  "osm_id": "node/3964711995",
  "name": "The Shelter Cofee",
  "name_en": "The Shelter Cofee",
  "category": "Café & Dessert",
  "lat": 7.8864262,
  "lon": 98.3859172,
  "cuisine": null,
  "opening_hours": null,
  "phone": "+66993024097",
  "website": null,
  "addr": "97 Dibuk road Phuket",
  "raw_tags": {
   "amenity": "cafe"
  }
 },
 {
  "osm_id": "node/3964711996",
  "name": "Kopi de Phuket",
  "name_en": "Kopi de Phuket",
  "category": "Local Food",
  "lat": 7.8822713,
  "lon": 98.3912833,
  "cuisine": null,
  "opening_hours": null,
  "phone": null,
  "website": null,
  "addr": null,
  "raw_tags": {
   "amenity": "restaurant"
  }
 },
 {
  "osm_id": "node/3966547747",
  "name": "Phuketique",
  "name_en": null,
  "category": "Café & Dessert",
  "lat": 7.8834525,
  "lon": 98.3872134,
  "cuisine": null,
  "opening_hours": null,
  "phone": null,
  "website": null,
  "addr": null,
  "raw_tags": {
   "amenity": "cafe"
  }
 },
 {
  "osm_id": "node/3971602652",
  "name": "Tigger bar",
  "name_en": null,
  "category": "Local Food",
  "lat": 7.8108901,
  "lon": 98.3018086,
  "cuisine": "thai",
  "opening_hours": null,
  "phone": null,
  "website": null,
  "addr": null,
  "raw_tags": {
   "amenity": "restaurant"
  }
 },
 {
  "osm_id": "node/3974840692",
  "name": "number one massage and nails",
  "name_en": null,
  "category": "Massage & Spa / Wellness",
  "lat": 7.8880102,
  "lon": 98.2959177,
  "cuisine": null,
  "opening_hours": null,
  "phone": null,
  "website": null,
  "addr": null,
  "raw_tags": {
   "shop": "massage"
  }
 },
 {
  "osm_id": "node/3983415770",
  "name": "phu thai massage spa",
  "name_en": null,
  "category": "Massage & Spa / Wellness",
  "lat": 8.0689412,
  "lon": 98.3431796,
  "cuisine": null,
  "opening_hours": "Mo-Su 10:00-23:30",
  "phone": null,
  "website": null,
  "addr": null,
  "raw_tags": {
   "shop": "massage"
  }
 },
 {
  "osm_id": "node/3983421103",
  "name": "Laem Singh viewpoint",
  "name_en": null,
  "category": "Attraction / Experience",
  "lat": 7.9700561,
  "lon": 98.2793891,
  "cuisine": null,
  "opening_hours": null,
  "phone": null,
  "website": null,
  "addr": null,
  "raw_tags": {
   "tourism": "viewpoint"
  }
 },
 {
  "osm_id": "node/3983421864",
  "name": "noodle shop",
  "name_en": null,
  "category": "Local Food",
  "lat": 8.0859299,
  "lon": 98.3025771,
  "cuisine": null,
  "opening_hours": null,
  "phone": null,
  "website": null,
  "addr": null,
  "raw_tags": {
   "amenity": "restaurant"
  }
 },
 {
  "osm_id": "node/3984003491",
  "name": "naiyang park restaurant",
  "name_en": null,
  "category": "Local Food",
  "lat": 8.0936118,
  "lon": 98.299275,
  "cuisine": null,
  "opening_hours": null,
  "phone": null,
  "website": null,
  "addr": null,
  "raw_tags": {
   "amenity": "restaurant"
  }
 },
 {
  "osm_id": "node/3984004419",
  "name": "ของฝากภูเก็ต",
  "name_en": "Phuket Souvenir",
  "category": "Souvenirs & Crafts",
  "lat": 8.1009202,
  "lon": 98.3071017,
  "cuisine": null,
  "opening_hours": "Mo-Su 09:00-24:00",
  "phone": "+66800832287",
  "website": null,
  "addr": null,
  "raw_tags": {
   "shop": "gift"
  }
 },
 {
  "osm_id": "node/3984004592",
  "name": "ruanbubpha3 massage and beauty",
  "name_en": null,
  "category": "Massage & Spa / Wellness",
  "lat": 8.1001327,
  "lon": 98.3072595,
  "cuisine": null,
  "opening_hours": null,
  "phone": null,
  "website": null,
  "addr": null,
  "raw_tags": {
   "shop": "massage"
  }
 },
 {
  "osm_id": "node/4014663213",
  "name": "Chang Pub",
  "name_en": null,
  "category": "Local Food",
  "lat": 7.892547,
  "lon": 98.300334,
  "cuisine": "regional",
  "opening_hours": null,
  "phone": null,
  "website": null,
  "addr": null,
  "raw_tags": {
   "amenity": "restaurant"
  }
 },
 {
  "osm_id": "node/4014713362",
  "name": "Sea View",
  "name_en": null,
  "category": "Bar / Nightlife",
  "lat": 7.8872743,
  "lon": 98.2913547,
  "cuisine": null,
  "opening_hours": null,
  "phone": null,
  "website": null,
  "addr": null,
  "raw_tags": {
   "amenity": "bar"
  }
 },
 {
  "osm_id": "node/4020756339",
  "name": "The Deck",
  "name_en": null,
  "category": "Local Food",
  "lat": 8.1689419,
  "lon": 98.3389803,
  "cuisine": "thai",
  "opening_hours": null,
  "phone": null,
  "website": "https://www.pyhmarina.com/",
  "addr": null,
  "raw_tags": {
   "amenity": "restaurant"
  }
 },
 {
  "osm_id": "node/4020756665",
  "name": "Mama's And Papa's",
  "name_en": null,
  "category": "Local Food",
  "lat": 8.172615,
  "lon": 98.3370018,
  "cuisine": "thai",
  "opening_hours": null,
  "phone": null,
  "website": null,
  "addr": null,
  "raw_tags": {
   "amenity": "restaurant"
  }
 },
 {
  "osm_id": "node/4039738605",
  "name": "Dunkin'",
  "name_en": null,
  "category": "Local Food",
  "lat": 7.8905606,
  "lon": 98.3007019,
  "cuisine": "donut;coffee_shop",
  "opening_hours": "closed",
  "phone": null,
  "website": null,
  "addr": null,
  "raw_tags": {
   "amenity": "fast_food"
  }
 },
 {
  "osm_id": "node/4082641090",
  "name": "KFC",
  "name_en": "KFC",
  "category": "Local Food",
  "lat": 7.8922355,
  "lon": 98.3673931,
  "cuisine": "chicken",
  "opening_hours": null,
  "phone": "1150",
  "website": "https://www.kfc.co.th/",
  "addr": null,
  "raw_tags": {
   "amenity": "fast_food"
  }
 },
 {
  "osm_id": "node/4082641091",
  "name": "KFC",
  "name_en": "KFC",
  "category": "Local Food",
  "lat": 7.8955872,
  "lon": 98.3673289,
  "cuisine": "chicken",
  "opening_hours": null,
  "phone": "1150",
  "website": "https://www.kfc.co.th/",
  "addr": null,
  "raw_tags": {
   "amenity": "fast_food"
  }
 },
 {
  "osm_id": "node/4100359967",
  "name": "food and fruit ",
  "name_en": null,
  "category": "Local Product / Market",
  "lat": 7.8582057,
  "lon": 98.3776895,
  "cuisine": null,
  "opening_hours": null,
  "phone": null,
  "website": null,
  "addr": null,
  "raw_tags": {
   "shop": "greengrocer"
  }
 },
 {
  "osm_id": "node/4100360025",
  "name": "fruit and eat",
  "name_en": null,
  "category": "Local Product / Market",
  "lat": 7.9153976,
  "lon": 98.3716951,
  "cuisine": null,
  "opening_hours": null,
  "phone": null,
  "website": null,
  "addr": null,
  "raw_tags": {
   "shop": "greengrocer"
  }
 },
 {
  "osm_id": "node/4100370813",
  "name": "Tony restaurant",
  "name_en": null,
  "category": "Local Food",
  "lat": 7.8525383,
  "lon": 98.3478813,
  "cuisine": "asian",
  "opening_hours": "Mo-Su 10:00-23:00",
  "phone": null,
  "website": null,
  "addr": null,
  "raw_tags": {
   "amenity": "restaurant"
  }
 },
 {
  "osm_id": "node/4101009906",
  "name": "502",
  "name_en": null,
  "category": "Café & Dessert",
  "lat": 7.7823831,
  "lon": 98.3152817,
  "cuisine": null,
  "opening_hours": null,
  "phone": null,
  "website": null,
  "addr": null,
  "raw_tags": {
   "amenity": "cafe"
  }
 },
 {
  "osm_id": "node/4101060390",
  "name": "ร้านอาหารมังสวิรัติ",
  "name_en": null,
  "category": "Local Food",
  "lat": 7.8837147,
  "lon": 98.3834532,
  "cuisine": null,
  "opening_hours": null,
  "phone": null,
  "website": null,
  "addr": null,
  "raw_tags": {
   "amenity": "restaurant"
  }
 },
 {
  "osm_id": "node/4101064989",
  "name": "Thai gallery and coffee bar",
  "name_en": null,
  "category": "Local Food",
  "lat": 7.8313163,
  "lon": 98.3101838,
  "cuisine": null,
  "opening_hours": null,
  "phone": null,
  "website": null,
  "addr": null,
  "raw_tags": {
   "amenity": "restaurant"
  }
 },
 {
  "osm_id": "node/4109226690",
  "name": "Beer Garden",
  "name_en": null,
  "category": "Café & Dessert",
  "lat": 7.9853405,
  "lon": 98.2873797,
  "cuisine": null,
  "opening_hours": null,
  "phone": null,
  "website": null,
  "addr": null,
  "raw_tags": {
   "amenity": "cafe"
  }
 },
 {
  "osm_id": "node/4119166289",
  "name": "thaï noodle Hallal ",
  "name_en": null,
  "category": "Local Food",
  "lat": 7.8816415,
  "lon": 98.3641872,
  "cuisine": null,
  "opening_hours": null,
  "phone": null,
  "website": null,
  "addr": null,
  "raw_tags": {
   "amenity": "restaurant"
  }
 },
 {
  "osm_id": "node/4127417146",
  "name": "Shabu Kong&Grill Kong",
  "name_en": null,
  "category": "Local Food",
  "lat": 7.8815326,
  "lon": 98.3646566,
  "cuisine": "japanese;asian",
  "opening_hours": null,
  "phone": null,
  "website": null,
  "addr": "2/1 หมู่ 4 วิรัตน์หงษ์หยก Phuket",
  "raw_tags": {
   "amenity": "restaurant"
  }
 },
 {
  "osm_id": "node/4135940348",
  "name": "Khao Khad sea view",
  "name_en": null,
  "category": "Attraction / Experience",
  "lat": 7.825094,
  "lon": 98.3814148,
  "cuisine": null,
  "opening_hours": null,
  "phone": null,
  "website": null,
  "addr": null,
  "raw_tags": {
   "tourism": "viewpoint"
  }
 },
 {
  "osm_id": "node/4143867610",
  "name": "Market",
  "name_en": null,
  "category": "Local Product / Market",
  "lat": 7.9896189,
  "lon": 98.3066823,
  "cuisine": null,
  "opening_hours": "We,Su",
  "phone": null,
  "website": null,
  "addr": null,
  "raw_tags": {
   "amenity": "marketplace"
  }
 },
 {
  "osm_id": "node/4143868538",
  "name": "Friday Night Market",
  "name_en": null,
  "category": "Local Product / Market",
  "lat": 7.9931542,
  "lon": 98.3054694,
  "cuisine": null,
  "opening_hours": "Fr 16:00-21:00",
  "phone": null,
  "website": null,
  "addr": null,
  "raw_tags": {
   "amenity": "marketplace"
  }
 },
 {
  "osm_id": "node/4143877738",
  "name": "Bang Tao Night Market",
  "name_en": null,
  "category": "Local Product / Market",
  "lat": 7.9865765,
  "lon": 98.2992098,
  "cuisine": null,
  "opening_hours": "Mo 14:00-22:00; Th 14:00-22:00",
  "phone": null,
  "website": null,
  "addr": null,
  "raw_tags": {
   "amenity": "marketplace"
  }
 },
 {
  "osm_id": "node/4143988796",
  "name": "M&N Snooker * Pool",
  "name_en": null,
  "category": "Bar / Nightlife",
  "lat": 7.8922071,
  "lon": 98.2945283,
  "cuisine": null,
  "opening_hours": null,
  "phone": null,
  "website": null,
  "addr": null,
  "raw_tags": {
   "amenity": "bar"
  }
 },
 {
  "osm_id": "node/4143990297",
  "name": "Roma Ristorante & Pizzeria Da Mauro",
  "name_en": null,
  "category": "Local Food",
  "lat": 7.8922403,
  "lon": 98.2945823,
  "cuisine": null,
  "opening_hours": null,
  "phone": null,
  "website": null,
  "addr": null,
  "raw_tags": {
   "amenity": "restaurant"
  }
 },
 {
  "osm_id": "node/4143993690",
  "name": "KFC",
  "name_en": null,
  "category": "Local Food",
  "lat": 7.8922812,
  "lon": 98.2945567,
  "cuisine": "chicken",
  "opening_hours": null,
  "phone": null,
  "website": null,
  "addr": null,
  "raw_tags": {
   "amenity": "fast_food"
  }
 },
 {
  "osm_id": "node/4144223791",
  "name": "จุดอันซีนภูเก็ต เครื่องบินแลนดิ้งติดหาดไม้ขาว",
  "name_en": "Airplane Viewpoint at Maikhao Beach",
  "category": "Attraction / Experience",
  "lat": 8.1136478,
  "lon": 98.3022091,
  "cuisine": null,
  "opening_hours": null,
  "phone": null,
  "website": null,
  "addr": null,
  "raw_tags": {
   "tourism": "viewpoint"
  }
 },
 {
  "osm_id": "node/4149392092",
  "name": "Hong Khao Tom Pla",
  "name_en": null,
  "category": "Local Food",
  "lat": 7.87667,
  "lon": 98.3932184,
  "cuisine": null,
  "opening_hours": "Mo-Sa 17:30-21:00",
  "phone": "+6686277807",
  "website": null,
  "addr": "ถนนกระ",
  "raw_tags": {
   "amenity": "restaurant"
  }
 },
 {
  "osm_id": "node/4149451590",
  "name": "ร้านอาหาร ระย้า",
  "name_en": "Raya",
  "category": "Local Food",
  "lat": 7.8859294,
  "lon": 98.3909045,
  "cuisine": null,
  "opening_hours": "Mo-Su 10:00-22:00",
  "phone": null,
  "website": null,
  "addr": "48/1",
  "raw_tags": {
   "amenity": "restaurant"
  }
 },
 {
  "osm_id": "node/4149517190",
  "name": "A Pong Mae Sunee",
  "name_en": null,
  "category": "Local Food",
  "lat": 7.8858134,
  "lon": 98.387383,
  "cuisine": null,
  "opening_hours": null,
  "phone": "+66867437557",
  "website": null,
  "addr": null,
  "raw_tags": {
   "amenity": "restaurant"
  }
 },
 {
  "osm_id": "node/4149519189",
  "name": "Jeepang Mee Hoon Kraduk Moo AND Oh Ew Paelee",
  "name_en": null,
  "category": "Local Food",
  "lat": 7.885835,
  "lon": 98.387136,
  "cuisine": null,
  "opening_hours": null,
  "phone": null,
  "website": null,
  "addr": null,
  "raw_tags": {
   "amenity": "restaurant"
  }
 },
 {
  "osm_id": "node/4149574989",
  "name": "Noy Pochana ",
  "name_en": null,
  "category": "Local Food",
  "lat": 7.8847516,
  "lon": 98.3930057,
  "cuisine": null,
  "opening_hours": "Mo-Su 17:00-02:00",
  "phone": null,
  "website": null,
  "addr": "21",
  "raw_tags": {
   "amenity": "restaurant"
  }
 },
 {
  "osm_id": "node/4149591390",
  "name": "Krua Charifa",
  "name_en": null,
  "category": "Local Food",
  "lat": 7.8780345,
  "lon": 98.3955879,
  "cuisine": null,
  "opening_hours": "Mo-Su 08:00-16:00",
  "phone": null,
  "website": null,
  "addr": "113 Tilok Utis 2 Road",
  "raw_tags": {
   "amenity": "restaurant"
  }
 },
 {
  "osm_id": "node/4149625489",
  "name": "Yoy Pochana",
  "name_en": null,
  "category": "Local Food",
  "lat": 7.884868,
  "lon": 98.3870211,
  "cuisine": null,
  "opening_hours": "Mo-Su 17:00-01:00",
  "phone": null,
  "website": null,
  "addr": "33 Thannon Krabi",
  "raw_tags": {
   "amenity": "restaurant"
  }
 },
 {
  "osm_id": "node/4149661097",
  "name": "Koi Restaurant",
  "name_en": null,
  "category": "Local Food",
  "lat": 7.8218404,
  "lon": 98.3048135,
  "cuisine": "thai;seafood",
  "opening_hours": null,
  "phone": "0964622239",
  "website": null,
  "addr": "Patak Road",
  "raw_tags": {
   "amenity": "restaurant"
  }
 },
 {
  "osm_id": "node/4149690689",
  "name": "Sugar and Spice",
  "name_en": null,
  "category": "Local Food",
  "lat": 7.8231754,
  "lon": 98.3006852,
  "cuisine": null,
  "opening_hours": "Mo-Su 09:00-22:00",
  "phone": null,
  "website": null,
  "addr": "98 Kata Rd",
  "raw_tags": {
   "amenity": "restaurant"
  }
 },
 {
  "osm_id": "node/4149699189",
  "name": "The Family Restaurant",
  "name_en": null,
  "category": "Local Food",
  "lat": 7.8163835,
  "lon": 98.3069662,
  "cuisine": null,
  "opening_hours": "Mo-Su 10:00-23:00",
  "phone": null,
  "website": null,
  "addr": "107 Khoktanod Road",
  "raw_tags": {
   "amenity": "restaurant"
  }
 },
 {
  "osm_id": "node/4150177489",
  "name": "Som Tam Kit",
  "name_en": null,
  "category": "Local Food",
  "lat": 7.8107308,
  "lon": 98.3018288,
  "cuisine": null,
  "opening_hours": null,
  "phone": null,
  "website": null,
  "addr": "Kata-Sai Yuan Road",
  "raw_tags": {
   "amenity": "restaurant"
  }
 },
 {
  "osm_id": "node/4150196889",
  "name": "Pha Mah Ree",
  "name_en": null,
  "category": "Local Food",
  "lat": 7.8195818,
  "lon": 98.3088985,
  "cuisine": null,
  "opening_hours": null,
  "phone": null,
  "website": null,
  "addr": "Patak Road",
  "raw_tags": {
   "amenity": "restaurant"
  }
 },
 {
  "osm_id": "node/4150196890",
  "name": "Khem Tui",
  "name_en": null,
  "category": "Local Food",
  "lat": 7.8197673,
  "lon": 98.3076159,
  "cuisine": null,
  "opening_hours": null,
  "phone": null,
  "website": null,
  "addr": "Patak Road Soi 6",
  "raw_tags": {
   "amenity": "restaurant"
  }
 },
 {
  "osm_id": "node/4150248189",
  "name": "Bang Pae Seafood",
  "name_en": null,
  "category": "Local Food",
  "lat": 8.0365886,
  "lon": 98.4153086,
  "cuisine": null,
  "opening_hours": null,
  "phone": null,
  "website": null,
  "addr": "Soi Bang Toei",
  "raw_tags": {
   "amenity": "restaurant"
  }
 },
 {
  "osm_id": "node/4170949014",
  "name": "Burger King",
  "name_en": null,
  "category": "Local Food",
  "lat": 7.8917349,
  "lon": 98.2995802,
  "cuisine": "burger",
  "opening_hours": "24/7",
  "phone": null,
  "website": "https://www.burgerking.co.th/",
  "addr": null,
  "raw_tags": {
   "amenity": "fast_food"
  }
 },
 {
  "osm_id": "node/4172708889",
  "name": "The Pad Thai Shop",
  "name_en": null,
  "category": "Local Food",
  "lat": 7.8315528,
  "lon": 98.300068,
  "cuisine": "asian;thai",
  "opening_hours": "Sa-Th 08:00-19:00",
  "phone": null,
  "website": null,
  "addr": null,
  "raw_tags": {
   "amenity": "restaurant"
  }
 },
 {
  "osm_id": "node/4172824591",
  "name": "Street Food Restaurant",
  "name_en": null,
  "category": "Local Food",
  "lat": 7.884873,
  "lon": 98.38909,
  "cuisine": "thai",
  "opening_hours": null,
  "phone": null,
  "website": null,
  "addr": null,
  "raw_tags": {
   "amenity": "restaurant"
  }
 },
 {
  "osm_id": "node/4173551699",
  "name": "Peang-Prai Restaurant",
  "name_en": null,
  "category": "Local Food",
  "lat": 8.0414538,
  "lon": 98.395381,
  "cuisine": null,
  "opening_hours": "Mo-Su 10:00-20:00",
  "phone": "+66887681497",
  "website": null,
  "addr": null,
  "raw_tags": {
   "amenity": "restaurant"
  }
 },
 {
  "osm_id": "node/4178887521",
  "name": "บ้านตีลังกา",
  "name_en": "Upside down house",
  "category": "Attraction / Experience",
  "lat": 7.9384404,
  "lon": 98.3796245,
  "cuisine": null,
  "opening_hours": "Mo-Su 10:00-18:00",
  "phone": null,
  "website": null,
  "addr": "ถนนเทพกระษัตรี",
  "raw_tags": {
   "tourism": "attraction"
  }
 },
 {
  "osm_id": "node/4179214790",
  "name": "Cape Promthep restaurant",
  "name_en": null,
  "category": "Local Food",
  "lat": 7.7643212,
  "lon": 98.3053958,
  "cuisine": null,
  "opening_hours": null,
  "phone": null,
  "website": null,
  "addr": null,
  "raw_tags": {
   "amenity": "restaurant"
  }
 },
 {
  "osm_id": "node/4179814015",
  "name": "Mor Mu Dong Restaurant",
  "name_en": null,
  "category": "Local Food",
  "lat": 7.8431373,
  "lon": 98.3719927,
  "cuisine": "seafood",
  "opening_hours": "Mo-Su 10:00-21:00",
  "phone": "+66887661634",
  "website": null,
  "addr": null,
  "raw_tags": {
   "amenity": "restaurant"
  }
 },
 {
  "osm_id": "node/4179844127",
  "name": "Pa Lai Seafood Restaurant ",
  "name_en": null,
  "category": "Local Food",
  "lat": 7.8385403,
  "lon": 98.3645767,
  "cuisine": null,
  "opening_hours": null,
  "phone": null,
  "website": null,
  "addr": null,
  "raw_tags": {
   "amenity": "restaurant"
  }
 },
 {
  "osm_id": "node/4179883591",
  "name": "Cafe Havana",
  "name_en": null,
  "category": "Café & Dessert",
  "lat": 7.8086921,
  "lon": 98.3022888,
  "cuisine": null,
  "opening_hours": null,
  "phone": null,
  "website": null,
  "addr": null,
  "raw_tags": {
   "amenity": "cafe"
  }
 },
 {
  "osm_id": "node/4187010498",
  "name": "مطعم حلال",
  "name_en": null,
  "category": "Local Food",
  "lat": 7.8008187,
  "lon": 98.335103,
  "cuisine": null,
  "opening_hours": null,
  "phone": null,
  "website": null,
  "addr": null,
  "raw_tags": {
   "amenity": "restaurant"
  }
 },
 {
  "osm_id": "node/4189893192",
  "name": "Swensen's",
  "name_en": null,
  "category": "Café & Dessert",
  "lat": 7.8783294,
  "lon": 98.393744,
  "cuisine": "ice_cream",
  "opening_hours": null,
  "phone": null,
  "website": null,
  "addr": null,
  "raw_tags": {
   "amenity": "ice_cream",
   "shop": "confectionery"
  }
 },
 {
  "osm_id": "node/4193786409",
  "name": "Blue Horizon",
  "name_en": null,
  "category": "Local Food",
  "lat": 7.8919538,
  "lon": 98.2947839,
  "cuisine": "thai",
  "opening_hours": "Mo-Su 12:00-23:00",
  "phone": null,
  "website": null,
  "addr": "Soi Patong Tower",
  "raw_tags": {
   "amenity": "restaurant"
  }
 },
 {
  "osm_id": "node/4195127489",
  "name": "Sweet Lemongrass Massage",
  "name_en": null,
  "category": "Massage & Spa / Wellness",
  "lat": 7.8813224,
  "lon": 98.2981298,
  "cuisine": null,
  "opening_hours": "closed",
  "phone": null,
  "website": null,
  "addr": "162/5 Nanaisoi 8",
  "raw_tags": {
   "shop": "massage"
  }
 },
 {
  "osm_id": "node/4197196789",
  "name": "Poo Nurntong Restaurant",
  "name_en": null,
  "category": "Local Food",
  "lat": 7.9046167,
  "lon": 98.3180969,
  "cuisine": null,
  "opening_hours": null,
  "phone": "66801445722",
  "website": null,
  "addr": "Soi Khuanyang",
  "raw_tags": {
   "amenity": "restaurant"
  }
 },
 {
  "osm_id": "node/4197228790",
  "name": "Pho house by mama phung",
  "name_en": null,
  "category": "Local Food",
  "lat": 7.9028671,
  "lon": 98.3078579,
  "cuisine": null,
  "opening_hours": null,
  "phone": "66996284375",
  "website": null,
  "addr": "Phrabarami Road",
  "raw_tags": {
   "amenity": "restaurant"
  }
 },
 {
  "osm_id": "node/4197242789",
  "name": "Silk Restaurant and Bar",
  "name_en": null,
  "category": "Local Food",
  "lat": 7.9490548,
  "lon": 98.2750311,
  "cuisine": null,
  "opening_hours": "Mo-Sa 11:00-22:00",
  "phone": "6676338777",
  "website": null,
  "addr": "15 Moo 6",
  "raw_tags": {
   "amenity": "restaurant"
  }
 },
 {
  "osm_id": "node/4200384408",
  "name": "Radar hill",
  "name_en": null,
  "category": "Attraction / Experience",
  "lat": 7.874235,
  "lon": 98.3135107,
  "cuisine": null,
  "opening_hours": null,
  "phone": null,
  "website": null,
  "addr": null,
  "raw_tags": {
   "tourism": "viewpoint"
  }
 },
 {
  "osm_id": "node/4205168991",
  "name": "ท่าเรืออ่าวมะขาม",
  "name_en": null,
  "category": "Attraction / Experience",
  "lat": 7.8297548,
  "lon": 98.4052589,
  "cuisine": null,
  "opening_hours": null,
  "phone": null,
  "website": null,
  "addr": null,
  "raw_tags": {
   "tourism": "viewpoint"
  }
 },
 {
  "osm_id": "node/4205169392",
  "name": "Wat Chalong Temple",
  "name_en": "Wat Chalong Temple",
  "category": "Attraction / Experience",
  "lat": 7.8463829,
  "lon": 98.3361268,
  "cuisine": null,
  "opening_hours": null,
  "phone": null,
  "website": null,
  "addr": null,
  "raw_tags": {
   "tourism": "viewpoint"
  }
 },
 {
  "osm_id": "node/4205169590",
  "name": "มาลาติ่มซำ",
  "name_en": "Mala Dimsam",
  "category": "Local Food",
  "lat": 7.8229671,
  "lon": 98.3029704,
  "cuisine": null,
  "opening_hours": null,
  "phone": null,
  "website": null,
  "addr": null,
  "raw_tags": {
   "amenity": "restaurant"
  }
 },
 {
  "osm_id": "node/4205169690",
  "name": "แหลมหินซีฟู้ด",
  "name_en": "Laem Hin Seafood",
  "category": "Local Food",
  "lat": 7.9357245,
  "lon": 98.4073717,
  "cuisine": null,
  "opening_hours": null,
  "phone": null,
  "website": null,
  "addr": null,
  "raw_tags": {
   "amenity": "restaurant"
  }
 },
 {
  "osm_id": "node/4205169691",
  "name": "โกซ้งคนโบราณ",
  "name_en": null,
  "category": "Local Food",
  "lat": 7.8825922,
  "lon": 98.3855875,
  "cuisine": null,
  "opening_hours": null,
  "phone": null,
  "website": null,
  "addr": null,
  "raw_tags": {
   "amenity": "restaurant"
  }
 },
 {
  "osm_id": "node/4205170189",
  "name": "Kopitiam by Wilai",
  "name_en": null,
  "category": "Local Food",
  "lat": 7.8847765,
  "lon": 98.3880844,
  "cuisine": null,
  "opening_hours": "Mo-Sa 11:00-22:00",
  "phone": "+66 83-606-9776",
  "website": null,
  "addr": null,
  "raw_tags": {
   "amenity": "restaurant"
  }
 },
 {
  "osm_id": "node/4205170190",
  "name": "กันเอง2",
  "name_en": "Kan Eang Seafood 2",
  "category": "Local Food",
  "lat": 7.8250723,
  "lon": 98.3463309,
  "cuisine": null,
  "opening_hours": null,
  "phone": null,
  "website": null,
  "addr": null,
  "raw_tags": {
   "amenity": "restaurant"
  }
 },
 {
  "osm_id": "node/4205170191",
  "name": "Nok's house",
  "name_en": null,
  "category": "Attraction / Experience",
  "lat": 7.9109946,
  "lon": 98.3361384,
  "cuisine": null,
  "opening_hours": null,
  "phone": null,
  "website": null,
  "addr": null,
  "raw_tags": {
   "tourism": "attraction"
  }
 },
 {
  "osm_id": "node/4205170690",
  "name": "The Circle Coffee Boutique",
  "name_en": null,
  "category": "Café & Dessert",
  "lat": 7.880205,
  "lon": 98.3923632,
  "cuisine": null,
  "opening_hours": null,
  "phone": null,
  "website": null,
  "addr": null,
  "raw_tags": {
   "amenity": "cafe"
  }
 },
 {
  "osm_id": "node/4205170989",
  "name": "Cafe Y ate",
  "name_en": null,
  "category": "Café & Dessert",
  "lat": 7.8835491,
  "lon": 98.3905688,
  "cuisine": null,
  "opening_hours": null,
  "phone": null,
  "website": null,
  "addr": null,
  "raw_tags": {
   "amenity": "cafe"
  }
 },
 {
  "osm_id": "node/4206319218",
  "name": "Tom Yam Koong",
  "name_en": null,
  "category": "Local Food",
  "lat": 7.8183161,
  "lon": 98.3005439,
  "cuisine": "italian_pizza;thai",
  "opening_hours": "Mo-Su 11:00-23:00",
  "phone": "+66 76 330 403",
  "website": null,
  "addr": null,
  "raw_tags": {
   "amenity": "restaurant"
  }
 },
 {
  "osm_id": "node/4208422193",
  "name": "tattoo",
  "name_en": null,
  "category": "Attraction / Experience",
  "lat": 7.8890918,
  "lon": 98.2956177,
  "cuisine": null,
  "opening_hours": null,
  "phone": null,
  "website": null,
  "addr": null,
  "raw_tags": {
   "tourism": "artwork"
  }
 },
 {
  "osm_id": "node/4214869140",
  "name": "Tasty fried food",
  "name_en": null,
  "category": "Local Food",
  "lat": 7.8249144,
  "lon": 98.2999866,
  "cuisine": "regional",
  "opening_hours": null,
  "phone": null,
  "website": null,
  "addr": null,
  "raw_tags": {
   "amenity": "restaurant"
  }
 },
 {
  "osm_id": "node/4219176696",
  "name": "Phuket Marathon",
  "name_en": null,
  "category": "Attraction / Experience",
  "lat": 7.9983667,
  "lon": 98.298279,
  "cuisine": null,
  "opening_hours": null,
  "phone": null,
  "website": null,
  "addr": null,
  "raw_tags": {
   "tourism": "attraction"
  }
 },
 {
  "osm_id": "node/4221591822",
  "name": "Return Bar",
  "name_en": null,
  "category": "Bar / Nightlife",
  "lat": 7.7948225,
  "lon": 98.3156168,
  "cuisine": "local;thai",
  "opening_hours": "Mo-Su 08:00-23:00",
  "phone": null,
  "website": null,
  "addr": null,
  "raw_tags": {
   "amenity": "bar"
  }
 },
 {
  "osm_id": "node/4221662705",
  "name": "Saboo. Natural Products",
  "name_en": null,
  "category": "Massage & Spa / Wellness",
  "lat": 7.7918507,
  "lon": 98.3181024,
  "cuisine": null,
  "opening_hours": "Mo-Su 09:00-22:00",
  "phone": null,
  "website": null,
  "addr": null,
  "raw_tags": {
   "shop": "cosmetics"
  }
 },
 {
  "osm_id": "node/4221693191",
  "name": "Chalong Buffet",
  "name_en": null,
  "category": "Local Food",
  "lat": 7.8233196,
  "lon": 98.335691,
  "cuisine": null,
  "opening_hours": "Mo-Su 17:00-00:00",
  "phone": null,
  "website": null,
  "addr": null,
  "raw_tags": {
   "amenity": "restaurant"
  }
 },
 {
  "osm_id": "node/4223066592",
  "name": "Bouddha couché",
  "name_en": "Bouddha couché",
  "category": "Attraction / Experience",
  "lat": 7.8804006,
  "lon": 98.4258378,
  "cuisine": null,
  "opening_hours": null,
  "phone": null,
  "website": null,
  "addr": null,
  "raw_tags": {
   "tourism": "viewpoint"
  }
 },
 {
  "osm_id": "node/4231933197",
  "name": "Don's Bar BQ",
  "name_en": null,
  "category": "Local Food",
  "lat": 7.884008,
  "lon": 98.3014534,
  "cuisine": "asian;barbecue;thai;steak_house",
  "opening_hours": null,
  "phone": null,
  "website": null,
  "addr": null,
  "raw_tags": {
   "amenity": "restaurant"
  }
 },
 {
  "osm_id": "node/4235493793",
  "name": "Audy Restoran",
  "name_en": "Audy Restaurant",
  "category": "Local Food",
  "lat": 7.9813593,
  "lon": 98.2808332,
  "cuisine": "burger;curry;hotdog;local;pizza;thai",
  "opening_hours": null,
  "phone": null,
  "website": null,
  "addr": null,
  "raw_tags": {
   "amenity": "restaurant"
  }
 },
 {
  "osm_id": "node/4252220304",
  "name": "Massage",
  "name_en": null,
  "category": "Massage & Spa / Wellness",
  "lat": 7.8928287,
  "lon": 98.2994693,
  "cuisine": null,
  "opening_hours": null,
  "phone": null,
  "website": null,
  "addr": null,
  "raw_tags": {
   "shop": "cosmetics"
  }
 },
 {
  "osm_id": "node/4255737089",
  "name": "Phuket Trickeye Museum",
  "name_en": null,
  "category": "Attraction / Experience",
  "lat": 7.8833837,
  "lon": 98.3926066,
  "cuisine": null,
  "opening_hours": null,
  "phone": null,
  "website": "http://www.phukettrickeyemuseum.com/",
  "addr": "130/1 Phang Nga Road",
  "raw_tags": {
   "tourism": "museum"
  }
 },